{"type": "FeatureCollection", "features": [{"type": "Feature", "properties": {"Provider": "Cloudflare", "Service Name": "CDN", "URL": "https://www.cloudflare.com/en-gb/network/", "City": "Ashburn", "Country": "United States", "Status": "", "Zone Name": "", "Region": "North America", "Parent Region": ""}, "geometry": {"type": "Point", "coordinates": [-77.469, 39.03]}}, {"type": "Feature", "properties": {"Provider": "Cloudflare", "Service Name": "CDN", "URL": "https://www.cloudflare.com/en-gb/network/", "City": "Atlanta", "Country": "United States", "Status": "", "Zone Name": "", "Region": "North America", "Parent Region": ""}, "geometry": {"type": "Point", "coordinates": [-84.386, 33.746]}}, {"type": "Feature", "properties": {"Provider": "Cloudflare", "Service Name": "CDN", "URL": "https://www.cloudflare.com/en-gb/network/", "City": "Boston", "Country": "United States", "Status": "", "Zone Name": "", "Region": "North America", "Parent Region": ""}, "geometry": {"type": "Point", "coordinates": [-71.061, 42.354]}}, {"type": "Feature", "properties": {"Provider": "Cloudflare", "Service Name": "CDN", "URL": "https://www.cloudflare.com/en-gb/network/", "City": "Buffalo", "Country": "United States", "Status": "", "Zone Name": "", "Region": "North America", "Parent Region": ""}, "geometry": {"type": "Point", "coordinates": [-78.876, 42.885]}}, {"type": "Feature", "properties": {"Provider": "Cloudflare", "Service Name": "CDN", "URL": "https://www.cloudflare.com/en-gb/network/", "City": "Calgary", "Country": "Canada", "Status": "", "Zone Name": "", "Region": "North America", "Parent Region": ""}, "geometry": {"type": "Point", "coordinates": [-114.054, 51.044]}}, {"type": "Feature", "properties": {"Provider": "Cloudflare", "Service Name": "CDN", "URL": "https://www.cloudflare.com/en-gb/network/", "City": "Charlotte", "Country": "United States", "Status": "", "Zone Name": "", "Region": "North America", "Parent Region": ""}, "geometry": {"type": "Point", "coordinates": [-80.846, 35.228]}}, {"type": "Feature", "properties": {"Provider": "Cloudflare", "Service Name": "CDN", "URL": "https://www.cloudflare.com/en-gb/network/", "City": "Chicago", "Country": "United States", "Status": "", "Zone Name": "", "Region": "North America", "Parent Region": ""}, "geometry": {"type": "Point", "coordinates": [-87.623, 41.878]}}, {"type": "Feature", "properties": {"Provider": "Cloudflare", "Service Name": "CDN", "URL": "https://www.cloudflare.com/en-gb/network/", "City": "Columbus", "Country": "United States", "Status": "", "Zone Name": "", "Region": "North America", "Parent Region": ""}, "geometry": {"type": "Point", "coordinates": [-83.002, 39.962]}}, {"type": "Feature", "properties": {"Provider": "Cloudflare", "Service Name": "CDN", "URL": "https://www.cloudflare.com/en-gb/network/", "City": "Dallas", "Country": "United States", "Status": "", "Zone Name": "", "Region": "North America", "Parent Region": ""}, "geometry": {"type": "Point", "coordinates": [-96.793, 32.779]}}, {"type": "Feature", "properties": {"Provider": "Cloudflare", "Service Name": "CDN", "URL": "https://www.cloudflare.com/en-gb/network/", "City": "Denver", "Country": "United States", "Status": "", "Zone Name": "", "Region": "North America", "Parent Region": ""}, "geometry": {"type": "Point", "coordinates": [-104.984, 39.736]}}, {"type": "Feature", "properties": {"Provider": "Cloudflare", "Service Name": "CDN", "URL": "https://www.cloudflare.com/en-gb/network/", "City": "Detroit", "Country": "United States", "Status": "", "Zone Name": "", "Region": "North America", "Parent Region": ""}, "geometry": {"type": "Point", "coordinates": [-83.05, 42.329]}}, {"type": "Feature", "properties": {"Provider": "Cloudflare", "Service Name": "CDN", "URL": "https://www.cloudflare.com/en-gb/network/", "City": "Honolulu", "Country": "United States", "Status": "", "Zone Name": "", "Region": "North America", "Parent Region": ""}, "geometry": {"type": "Point", "coordinates": [-157.859, 21.302]}}, {"type": "Feature", "properties": {"Provider": "Cloudflare", "Service Name": "CDN", "URL": "https://www.cloudflare.com/en-gb/network/", "City": "Houston", "Country": "United States", "Status": "", "Zone Name": "", "Region": "North America", "Parent Region": ""}, "geometry": {"type": "Point", "coordinates": [-95.368, 29.76]}}, {"type": "Feature", "properties": {"Provider": "Cloudflare", "Service Name": "CDN", "URL": "https://www.cloudflare.com/en-gb/network/", "City": "Indianapolis", "Country": "United States", "Status": "", "Zone Name": "", "Region": "North America", "Parent Region": ""}, "geometry": {"type": "Point", "coordinates": [-86.155, 39.764]}}, {"type": "Feature", "properties": {"Provider": "Cloudflare", "Service Name": "CDN", "URL": "https://www.cloudflare.com/en-gb/network/", "City": "Jacksonville", "Country": "United States", "Status": "", "Zone Name": "", "Region": "North America", "Parent Region": ""}, "geometry": {"type": "Point", "coordinates": [-81.66, 30.334]}}, {"type": "Feature", "properties": {"Provider": "Cloudflare", "Service Name": "CDN", "URL": "https://www.cloudflare.com/en-gb/network/", "City": "Kansas City", "Country": "United States", "Status": "", "Zone Name": "", "Region": "North America", "Parent Region": ""}, "geometry": {"type": "Point", "coordinates": [-94.58, 39.097]}}, {"type": "Feature", "properties": {"Provider": "Cloudflare", "Service Name": "CDN", "URL": "https://www.cloudflare.com/en-gb/network/", "City": "Las Vegas", "Country": "United States", "Status": "", "Zone Name": "", "Region": "North America", "Parent Region": ""}, "geometry": {"type": "Point", "coordinates": [-115.146, 36.164]}}, {"type": "Feature", "properties": {"Provider": "Cloudflare", "Service Name": "CDN", "URL": "https://www.cloudflare.com/en-gb/network/", "City": "Los Angeles", "Country": "United States", "Status": "", "Zone Name": "", "Region": "North America", "Parent Region": ""}, "geometry": {"type": "Point", "coordinates": [-118.241, 34.055]}}, {"type": "Feature", "properties": {"Provider": "Cloudflare", "Service Name": "CDN", "URL": "https://www.cloudflare.com/en-gb/network/", "City": "Mcallen", "Country": "United States", "Status": "", "Zone Name": "", "Region": "North America", "Parent Region": ""}, "geometry": {"type": "Point", "coordinates": [-98.233, 26.201]}}, {"type": "Feature", "properties": {"Provider": "Cloudflare", "Service Name": "CDN", "URL": "https://www.cloudflare.com/en-gb/network/", "City": "Memphis", "Country": "United States", "Status": "", "Zone Name": "", "Region": "North America", "Parent Region": ""}, "geometry": {"type": "Point", "coordinates": [-90.048, 35.144]}}, {"type": "Feature", "properties": {"Provider": "Cloudflare", "Service Name": "CDN", "URL": "https://www.cloudflare.com/en-gb/network/", "City": "Miami", "Country": "United States", "Status": "", "Zone Name": "", "Region": "North America", "Parent Region": ""}, "geometry": {"type": "Point", "coordinates": [-80.198, 25.777]}}, {"type": "Feature", "properties": {"Provider": "Cloudflare", "Service Name": "CDN", "URL": "https://www.cloudflare.com/en-gb/network/", "City": "Minneapolis", "Country": "United States", "Status": "", "Zone Name": "", "Region": "North America", "Parent Region": ""}, "geometry": {"type": "Point", "coordinates": [-93.269, 44.977]}}, {"type": "Feature", "properties": {"Provider": "Cloudflare", "Service Name": "CDN", "URL": "https://www.cloudflare.com/en-gb/network/", "City": "Montgomery", "Country": "United States", "Status": "", "Zone Name": "", "Region": "North America", "Parent Region": ""}, "geometry": {"type": "Point", "coordinates": [-86.297, 32.364]}}, {"type": "Feature", "properties": {"Provider": "Cloudflare", "Service Name": "CDN", "URL": "https://www.cloudflare.com/en-gb/network/", "City": "Montr\u00e9al", "Country": "Canada", "Status": "", "Zone Name": "", "Region": "North America", "Parent Region": ""}, "geometry": {"type": "Point", "coordinates": [-73.566, 45.501]}}, {"type": "Feature", "properties": {"Provider": "Cloudflare", "Service Name": "CDN", "URL": "https://www.cloudflare.com/en-gb/network/", "City": "Nashville", "Country": "United States", "Status": "", "Zone Name": "", "Region": "North America", "Parent Region": ""}, "geometry": {"type": "Point", "coordinates": [-86.777, 36.165]}}, {"type": "Feature", "properties": {"Provider": "Cloudflare", "Service Name": "CDN", "URL": "https://www.cloudflare.com/en-gb/network/", "City": "Newark", "Country": "United States", "Status": "", "Zone Name": "", "Region": "North America", "Parent Region": ""}, "geometry": {"type": "Point", "coordinates": [-74.168, 40.738]}}, {"type": "Feature", "properties": {"Provider": "Cloudflare", "Service Name": "CDN", "URL": "https://www.cloudflare.com/en-gb/network/", "City": "Norfolk", "Country": "United States", "Status": "", "Zone Name": "", "Region": "North America", "Parent Region": ""}, "geometry": {"type": "Point", "coordinates": [-76.285, 36.844]}}, {"type": "Feature", "properties": {"Provider": "Cloudflare", "Service Name": "CDN", "URL": "https://www.cloudflare.com/en-gb/network/", "City": "Omaha", "Country": "United States", "Status": "", "Zone Name": "", "Region": "North America", "Parent Region": ""}, "geometry": {"type": "Point", "coordinates": [-95.934, 41.257]}}, {"type": "Feature", "properties": {"Provider": "Cloudflare", "Service Name": "CDN", "URL": "https://www.cloudflare.com/en-gb/network/", "City": "Ottawa", "Country": "Canada", "Status": "", "Zone Name": "", "Region": "North America", "Parent Region": ""}, "geometry": {"type": "Point", "coordinates": [-75.692, 45.418]}}, {"type": "Feature", "properties": {"Provider": "Cloudflare", "Service Name": "CDN", "URL": "https://www.cloudflare.com/en-gb/network/", "City": "Philadelphia", "Country": "United States", "Status": "", "Zone Name": "", "Region": "North America", "Parent Region": ""}, "geometry": {"type": "Point", "coordinates": [-75.16, 39.948]}}, {"type": "Feature", "properties": {"Provider": "Cloudflare", "Service Name": "CDN", "URL": "https://www.cloudflare.com/en-gb/network/", "City": "Phoenix", "Country": "United States", "Status": "", "Zone Name": "", "Region": "North America", "Parent Region": ""}, "geometry": {"type": "Point", "coordinates": [-112.077, 33.447]}}, {"type": "Feature", "properties": {"Provider": "Cloudflare", "Service Name": "CDN", "URL": "https://www.cloudflare.com/en-gb/network/", "City": "Pittsburgh", "Country": "United States", "Status": "", "Zone Name": "", "Region": "North America", "Parent Region": ""}, "geometry": {"type": "Point", "coordinates": [-79.99, 40.442]}}, {"type": "Feature", "properties": {"Provider": "Cloudflare", "Service Name": "CDN", "URL": "https://www.cloudflare.com/en-gb/network/", "City": "Portland", "Country": "United States", "Status": "", "Zone Name": "", "Region": "North America", "Parent Region": ""}, "geometry": {"type": "Point", "coordinates": [-122.678, 45.516]}}, {"type": "Feature", "properties": {"Provider": "Cloudflare", "Service Name": "CDN", "URL": "https://www.cloudflare.com/en-gb/network/", "City": "Richmond", "Country": "United States", "Status": "", "Zone Name": "", "Region": "North America", "Parent Region": ""}, "geometry": {"type": "Point", "coordinates": [-77.439, 37.535]}}, {"type": "Feature", "properties": {"Provider": "Cloudflare", "Service Name": "CDN", "URL": "https://www.cloudflare.com/en-gb/network/", "City": "Sacramento", "Country": "United States", "Status": "", "Zone Name": "", "Region": "North America", "Parent Region": ""}, "geometry": {"type": "Point", "coordinates": [-121.496, 38.579]}}, {"type": "Feature", "properties": {"Provider": "Cloudflare", "Service Name": "CDN", "URL": "https://www.cloudflare.com/en-gb/network/", "City": "Salt Lake City", "Country": "United States", "Status": "", "Zone Name": "", "Region": "North America", "Parent Region": ""}, "geometry": {"type": "Point", "coordinates": [-111.884, 40.763]}}, {"type": "Feature", "properties": {"Provider": "Cloudflare", "Service Name": "CDN", "URL": "https://www.cloudflare.com/en-gb/network/", "City": "San Diego", "Country": "United States", "Status": "", "Zone Name": "", "Region": "North America", "Parent Region": ""}, "geometry": {"type": "Point", "coordinates": [-117.16, 32.721]}}, {"type": "Feature", "properties": {"Provider": "Cloudflare", "Service Name": "CDN", "URL": "https://www.cloudflare.com/en-gb/network/", "City": "San Jose", "Country": "United States", "Status": "", "Zone Name": "", "Region": "North America", "Parent Region": ""}, "geometry": {"type": "Point", "coordinates": [-121.888, 37.334]}}, {"type": "Feature", "properties": {"Provider": "Cloudflare", "Service Name": "CDN", "URL": "https://www.cloudflare.com/en-gb/network/", "City": "Saskatoon", "Country": "Canada", "Status": "", "Zone Name": "", "Region": "North America", "Parent Region": ""}, "geometry": {"type": "Point", "coordinates": [-106.657, 52.133]}}, {"type": "Feature", "properties": {"Provider": "Cloudflare", "Service Name": "CDN", "URL": "https://www.cloudflare.com/en-gb/network/", "City": "Seattle", "Country": "United States", "Status": "", "Zone Name": "", "Region": "North America", "Parent Region": ""}, "geometry": {"type": "Point", "coordinates": [-122.327, 47.608]}}, {"type": "Feature", "properties": {"Provider": "Cloudflare", "Service Name": "CDN", "URL": "https://www.cloudflare.com/en-gb/network/", "City": "St. Louis", "Country": "United States", "Status": "", "Zone Name": "", "Region": "North America", "Parent Region": ""}, "geometry": {"type": "Point", "coordinates": [-90.195, 38.628]}}, {"type": "Feature", "properties": {"Provider": "Cloudflare", "Service Name": "CDN", "URL": "https://www.cloudflare.com/en-gb/network/", "City": "Tallahassee", "Country": "United States", "Status": "", "Zone Name": "", "Region": "North America", "Parent Region": ""}, "geometry": {"type": "Point", "coordinates": [-84.281, 30.434]}}, {"type": "Feature", "properties": {"Provider": "Cloudflare", "Service Name": "CDN", "URL": "https://www.cloudflare.com/en-gb/network/", "City": "Tampa", "Country": "United States", "Status": "", "Zone Name": "", "Region": "North America", "Parent Region": ""}, "geometry": {"type": "Point", "coordinates": [-82.46, 27.947]}}, {"type": "Feature", "properties": {"Provider": "Cloudflare", "Service Name": "CDN", "URL": "https://www.cloudflare.com/en-gb/network/", "City": "Toronto", "Country": "Canada", "Status": "", "Zone Name": "", "Region": "North America", "Parent Region": ""}, "geometry": {"type": "Point", "coordinates": [-79.382, 43.653]}}, {"type": "Feature", "properties": {"Provider": "Cloudflare", "Service Name": "CDN", "URL": "https://www.cloudflare.com/en-gb/network/", "City": "Vancouver", "Country": "Canada", "Status": "", "Zone Name": "", "Region": "North America", "Parent Region": ""}, "geometry": {"type": "Point", "coordinates": [-123.11, 49.263]}}, {"type": "Feature", "properties": {"Provider": "Cloudflare", "Service Name": "CDN", "URL": "https://www.cloudflare.com/en-gb/network/", "City": "Winnipeg", "Country": "Canada", "Status": "", "Zone Name": "", "Region": "North America", "Parent Region": ""}, "geometry": {"type": "Point", "coordinates": [-97.141, 49.895]}}, {"type": "Feature", "properties": {"Provider": "Cloudflare", "Service Name": "CDN", "URL": "https://www.cloudflare.com/en-gb/network/", "City": "Americana", "Country": "Brazil", "Status": "", "Zone Name": "", "Region": "Latin America & the Caribbean", "Parent Region": ""}, "geometry": {"type": "Point", "coordinates": [-47.334, -22.737]}}, {"type": "Feature", "properties": {"Provider": "Cloudflare", "Service Name": "CDN", "URL": "https://www.cloudflare.com/en-gb/network/", "City": "Arica", "Country": "Chile", "Status": "", "Zone Name": "", "Region": "Latin America & the Caribbean", "Parent Region": ""}, "geometry": {"type": "Point", "coordinates": [-70.32, -18.475]}}, {"type": "Feature", "properties": {"Provider": "Cloudflare", "Service Name": "CDN", "URL": "https://www.cloudflare.com/en-gb/network/", "City": "Asuncion", "Country": "Paraguay", "Status": "", "Zone Name": "", "Region": "Latin America & the Caribbean", "Parent Region": ""}, "geometry": {"type": "Point", "coordinates": [-57.636, -25.276]}}, {"type": "Feature", "properties": {"Provider": "Cloudflare", "Service Name": "CDN", "URL": "https://www.cloudflare.com/en-gb/network/", "City": "Belo Horizonte", "Country": "Brazil", "Status": "", "Zone Name": "", "Region": "Latin America & the Caribbean", "Parent Region": ""}, "geometry": {"type": "Point", "coordinates": [-43.941, -19.924]}}, {"type": "Feature", "properties": {"Provider": "Cloudflare", "Service Name": "CDN", "URL": "https://www.cloudflare.com/en-gb/network/", "City": "Bel\u00e9m", "Country": "Brazil", "Status": "", "Zone Name": "", "Region": "Latin America & the Caribbean", "Parent Region": ""}, "geometry": {"type": "Point", "coordinates": [-48.466, -1.453]}}, {"type": "Feature", "properties": {"Provider": "Cloudflare", "Service Name": "CDN", "URL": "https://www.cloudflare.com/en-gb/network/", "City": "Blumenau", "Country": "Brazil", "Status": "", "Zone Name": "", "Region": "Latin America & the Caribbean", "Parent Region": ""}, "geometry": {"type": "Point", "coordinates": [-49.064, -26.922]}}, {"type": "Feature", "properties": {"Provider": "Cloudflare", "Service Name": "CDN", "URL": "https://www.cloudflare.com/en-gb/network/", "City": "Bogota", "Country": "Colombia", "Status": "", "Zone Name": "", "Region": "Latin America & the Caribbean", "Parent Region": ""}, "geometry": {"type": "Point", "coordinates": [-74.08, 4.651]}}, {"type": "Feature", "properties": {"Provider": "Cloudflare", "Service Name": "CDN", "URL": "https://www.cloudflare.com/en-gb/network/", "City": "Bras\u00edlia", "Country": "Brazil", "Status": "", "Zone Name": "", "Region": "Latin America & the Caribbean", "Parent Region": ""}, "geometry": {"type": "Point", "coordinates": [-53.202, -10.332]}}, {"type": "Feature", "properties": {"Provider": "Cloudflare", "Service Name": "CDN", "URL": "https://www.cloudflare.com/en-gb/network/", "City": "Buenos Aires", "Country": "Argentina", "Status": "", "Zone Name": "", "Region": "Latin America & the Caribbean", "Parent Region": ""}, "geometry": {"type": "Point", "coordinates": [-58.436, -34.608]}}, {"type": "Feature", "properties": {"Provider": "Cloudflare", "Service Name": "CDN", "URL": "https://www.cloudflare.com/en-gb/network/", "City": "Campinas", "Country": "Brazil", "Status": "", "Zone Name": "", "Region": "Latin America & the Caribbean", "Parent Region": ""}, "geometry": {"type": "Point", "coordinates": [-47.062, -22.903]}}, {"type": "Feature", "properties": {"Provider": "Cloudflare", "Service Name": "CDN", "URL": "https://www.cloudflare.com/en-gb/network/", "City": "Ca\u00e7ador", "Country": "Brazil", "Status": "", "Zone Name": "", "Region": "Latin America & the Caribbean", "Parent Region": ""}, "geometry": {"type": "Point", "coordinates": [-51.014, -26.774]}}, {"type": "Feature", "properties": {"Provider": "Cloudflare", "Service Name": "CDN", "URL": "https://www.cloudflare.com/en-gb/network/", "City": "Cordoba", "Country": "Argentina", "Status": "", "Zone Name": "", "Region": "Latin America & the Caribbean", "Parent Region": ""}, "geometry": {"type": "Point", "coordinates": [-64.183, -31.421]}}, {"type": "Feature", "properties": {"Provider": "Cloudflare", "Service Name": "CDN", "URL": "https://www.cloudflare.com/en-gb/network/", "City": "Cuiab\u00e1", "Country": "Brazil", "Status": "", "Zone Name": "", "Region": "Latin America & the Caribbean", "Parent Region": ""}, "geometry": {"type": "Point", "coordinates": [-56.1, -15.595]}}, {"type": "Feature", "properties": {"Provider": "Cloudflare", "Service Name": "CDN", "URL": "https://www.cloudflare.com/en-gb/network/", "City": "Curitiba", "Country": "Brazil", "Status": "", "Zone Name": "", "Region": "Latin America & the Caribbean", "Parent Region": ""}, "geometry": {"type": "Point", "coordinates": [-49.267, -25.43]}}, {"type": "Feature", "properties": {"Provider": "Cloudflare", "Service Name": "CDN", "URL": "https://www.cloudflare.com/en-gb/network/", "City": "Florian\u00f3polis", "Country": "Brazil", "Status": "", "Zone Name": "", "Region": "Latin America & the Caribbean", "Parent Region": ""}, "geometry": {"type": "Point", "coordinates": [-48.55, -27.602]}}, {"type": "Feature", "properties": {"Provider": "Cloudflare", "Service Name": "CDN", "URL": "https://www.cloudflare.com/en-gb/network/", "City": "Fortaleza", "Country": "Brazil", "Status": "", "Zone Name": "", "Region": "Latin America & the Caribbean", "Parent Region": ""}, "geometry": {"type": "Point", "coordinates": [-38.52, -3.73]}}, {"type": "Feature", "properties": {"Provider": "Cloudflare", "Service Name": "CDN", "URL": "https://www.cloudflare.com/en-gb/network/", "City": "Georgetown", "Country": "Guyana", "Status": "", "Zone Name": "", "Region": "Latin America & the Caribbean", "Parent Region": ""}, "geometry": {"type": "Point", "coordinates": [-58.164, 6.813]}}, {"type": "Feature", "properties": {"Provider": "Cloudflare", "Service Name": "CDN", "URL": "https://www.cloudflare.com/en-gb/network/", "City": "Goi\u00e2nia", "Country": "Brazil", "Status": "", "Zone Name": "", "Region": "Latin America & the Caribbean", "Parent Region": ""}, "geometry": {"type": "Point", "coordinates": [-49.25, -16.68]}}, {"type": "Feature", "properties": {"Provider": "Cloudflare", "Service Name": "CDN", "URL": "https://www.cloudflare.com/en-gb/network/", "City": "Guatemala City", "Country": "Guatemala", "Status": "", "Zone Name": "", "Region": "Latin America & the Caribbean", "Parent Region": ""}, "geometry": {"type": "Point", "coordinates": [-90.516, 14.626]}}, {"type": "Feature", "properties": {"Provider": "Cloudflare", "Service Name": "CDN", "URL": "https://www.cloudflare.com/en-gb/network/", "City": "Guayaquil", "Country": "Ecuador", "Status": "", "Zone Name": "", "Region": "Latin America & the Caribbean", "Parent Region": ""}, "geometry": {"type": "Point", "coordinates": [-80.096, -2.287]}}, {"type": "Feature", "properties": {"Provider": "Cloudflare", "Service Name": "CDN", "URL": "https://www.cloudflare.com/en-gb/network/", "City": "Itaja\u00ed", "Country": "Brazil", "Status": "", "Zone Name": "", "Region": "Latin America & the Caribbean", "Parent Region": ""}, "geometry": {"type": "Point", "coordinates": [-48.651, -26.907]}}, {"type": "Feature", "properties": {"Provider": "Cloudflare", "Service Name": "CDN", "URL": "https://www.cloudflare.com/en-gb/network/", "City": "Joinville", "Country": "Brazil", "Status": "", "Zone Name": "", "Region": "Latin America & the Caribbean", "Parent Region": ""}, "geometry": {"type": "Point", "coordinates": [-48.849, -26.3]}}, {"type": "Feature", "properties": {"Provider": "Cloudflare", "Service Name": "CDN", "URL": "https://www.cloudflare.com/en-gb/network/", "City": "Juazeiro do Norte", "Country": "Brazil", "Status": "", "Zone Name": "", "Region": "Latin America & the Caribbean", "Parent Region": ""}, "geometry": {"type": "Point", "coordinates": [-39.314, -7.215]}}, {"type": "Feature", "properties": {"Provider": "Cloudflare", "Service Name": "CDN", "URL": "https://www.cloudflare.com/en-gb/network/", "City": "Lima", "Country": "Peru", "Status": "", "Zone Name": "", "Region": "Latin America & the Caribbean", "Parent Region": ""}, "geometry": {"type": "Point", "coordinates": [-77.039, -12.066]}}, {"type": "Feature", "properties": {"Provider": "Cloudflare", "Service Name": "CDN", "URL": "https://www.cloudflare.com/en-gb/network/", "City": "Manaus", "Country": "Brazil", "Status": "", "Zone Name": "", "Region": "Latin America & the Caribbean", "Parent Region": ""}, "geometry": {"type": "Point", "coordinates": [-59.98, -3.131]}}, {"type": "Feature", "properties": {"Provider": "Cloudflare", "Service Name": "CDN", "URL": "https://www.cloudflare.com/en-gb/network/", "City": "Medell\u00edn", "Country": "Colombia", "Status": "", "Zone Name": "", "Region": "Latin America & the Caribbean", "Parent Region": ""}, "geometry": {"type": "Point", "coordinates": [-75.574, 6.244]}}, {"type": "Feature", "properties": {"Provider": "Cloudflare", "Service Name": "CDN", "URL": "https://www.cloudflare.com/en-gb/network/", "City": "Mexico City", "Country": "Mexico", "Status": "", "Zone Name": "", "Region": "Latin America & the Caribbean", "Parent Region": ""}, "geometry": {"type": "Point", "coordinates": [-99.136, 19.435]}}, {"type": "Feature", "properties": {"Provider": "Cloudflare", "Service Name": "CDN", "URL": "https://www.cloudflare.com/en-gb/network/", "City": "Neuquen", "Country": "Argentina", "Status": "", "Zone Name": "", "Region": "Latin America & the Caribbean", "Parent Region": ""}, "geometry": {"type": "Point", "coordinates": [-69.828, -38.373]}}, {"type": "Feature", "properties": {"Provider": "Cloudflare", "Service Name": "CDN", "URL": "https://www.cloudflare.com/en-gb/network/", "City": "Panama City", "Country": "Panama", "Status": "", "Zone Name": "", "Region": "Latin America & the Caribbean", "Parent Region": ""}, "geometry": {"type": "Point", "coordinates": [-79.534, 8.975]}}, {"type": "Feature", "properties": {"Provider": "Cloudflare", "Service Name": "CDN", "URL": "https://www.cloudflare.com/en-gb/network/", "City": "Paramaribo", "Country": "Suriname", "Status": "", "Zone Name": "", "Region": "Latin America & the Caribbean", "Parent Region": ""}, "geometry": {"type": "Point", "coordinates": [-55.17, 5.826]}}, {"type": "Feature", "properties": {"Provider": "Cloudflare", "Service Name": "CDN", "URL": "https://www.cloudflare.com/en-gb/network/", "City": "Port-Au-Prince", "Country": "Haiti", "Status": "", "Zone Name": "", "Region": "Latin America & the Caribbean", "Parent Region": ""}, "geometry": {"type": "Point", "coordinates": [-72.339, 18.55]}}, {"type": "Feature", "properties": {"Provider": "Cloudflare", "Service Name": "CDN", "URL": "https://www.cloudflare.com/en-gb/network/", "City": "Porto Alegre", "Country": "Brazil", "Status": "", "Zone Name": "", "Region": "Latin America & the Caribbean", "Parent Region": ""}, "geometry": {"type": "Point", "coordinates": [-51.23, -30.03]}}, {"type": "Feature", "properties": {"Provider": "Cloudflare", "Service Name": "CDN", "URL": "https://www.cloudflare.com/en-gb/network/", "City": "Queretaro", "Country": "Mexico", "Status": "", "Zone Name": "", "Region": "Latin America & the Caribbean", "Parent Region": ""}, "geometry": {"type": "Point", "coordinates": [-100.391, 20.596]}}, {"type": "Feature", "properties": {"Provider": "Cloudflare", "Service Name": "CDN", "URL": "https://www.cloudflare.com/en-gb/network/", "City": "Quito", "Country": "Ecuador", "Status": "", "Zone Name": "", "Region": "Latin America & the Caribbean", "Parent Region": ""}, "geometry": {"type": "Point", "coordinates": [-78.508, -0.217]}}, {"type": "Feature", "properties": {"Provider": "Cloudflare", "Service Name": "CDN", "URL": "https://www.cloudflare.com/en-gb/network/", "City": "Ribeir\u00e3o Preto", "Country": "Brazil", "Status": "", "Zone Name": "", "Region": "Latin America & the Caribbean", "Parent Region": ""}, "geometry": {"type": "Point", "coordinates": [-47.806, -21.176]}}, {"type": "Feature", "properties": {"Provider": "Cloudflare", "Service Name": "CDN", "URL": "https://www.cloudflare.com/en-gb/network/", "City": "Rio de Janeiro", "Country": "Brazil", "Status": "", "Zone Name": "", "Region": "Latin America & the Caribbean", "Parent Region": ""}, "geometry": {"type": "Point", "coordinates": [-43.21, -22.912]}}, {"type": "Feature", "properties": {"Provider": "Cloudflare", "Service Name": "CDN", "URL": "https://www.cloudflare.com/en-gb/network/", "City": "Salvador", "Country": "Brazil", "Status": "", "Zone Name": "", "Region": "Latin America & the Caribbean", "Parent Region": ""}, "geometry": {"type": "Point", "coordinates": [-38.484, -12.983]}}, {"type": "Feature", "properties": {"Provider": "Cloudflare", "Service Name": "CDN", "URL": "https://www.cloudflare.com/en-gb/network/", "City": "San Jos\u00e9", "Country": "Costa Rica", "Status": "", "Zone Name": "", "Region": "Latin America & the Caribbean", "Parent Region": ""}, "geometry": {"type": "Point", "coordinates": [-84.08, 9.935]}}, {"type": "Feature", "properties": {"Provider": "Cloudflare", "Service Name": "CDN", "URL": "https://www.cloudflare.com/en-gb/network/", "City": "Santo Domingo", "Country": "Dominican Republic", "Status": "", "Zone Name": "", "Region": "Latin America & the Caribbean", "Parent Region": ""}, "geometry": {"type": "Point", "coordinates": [-69.946, 18.477]}}, {"type": "Feature", "properties": {"Provider": "Cloudflare", "Service Name": "CDN", "URL": "https://www.cloudflare.com/en-gb/network/", "City": "Sorocaba", "Country": "Brazil", "Status": "", "Zone Name": "", "Region": "Latin America & the Caribbean", "Parent Region": ""}, "geometry": {"type": "Point", "coordinates": [-47.461, -23.503]}}, {"type": "Feature", "properties": {"Provider": "Cloudflare", "Service Name": "CDN", "URL": "https://www.cloudflare.com/en-gb/network/", "City": "St. George's", "Country": "Grenada", "Status": "", "Zone Name": "", "Region": "Latin America & the Caribbean", "Parent Region": ""}, "geometry": {"type": "Point", "coordinates": [-61.754, 12.053]}}, {"type": "Feature", "properties": {"Provider": "Cloudflare", "Service Name": "CDN", "URL": "https://www.cloudflare.com/en-gb/network/", "City": "S\u00e3o Jos\u00e9 do Rio Preto", "Country": "Brazil", "Status": "", "Zone Name": "", "Region": "Latin America & the Caribbean", "Parent Region": ""}, "geometry": {"type": "Point", "coordinates": [-49.383, -20.811]}}, {"type": "Feature", "properties": {"Provider": "Cloudflare", "Service Name": "CDN", "URL": "https://www.cloudflare.com/en-gb/network/", "City": "S\u00e3o Paulo", "Country": "Brazil", "Status": "", "Zone Name": "", "Region": "Latin America & the Caribbean", "Parent Region": ""}, "geometry": {"type": "Point", "coordinates": [-46.636, -23.551]}}, {"type": "Feature", "properties": {"Provider": "Cloudflare", "Service Name": "CDN", "URL": "https://www.cloudflare.com/en-gb/network/", "City": "Tegucigalpa", "Country": "Honduras", "Status": "", "Zone Name": "", "Region": "Latin America & the Caribbean", "Parent Region": ""}, "geometry": {"type": "Point", "coordinates": [-87.204, 14.102]}}, {"type": "Feature", "properties": {"Provider": "Cloudflare", "Service Name": "CDN", "URL": "https://www.cloudflare.com/en-gb/network/", "City": "Uberl\u00e2ndia", "Country": "Brazil", "Status": "", "Zone Name": "", "Region": "Latin America & the Caribbean", "Parent Region": ""}, "geometry": {"type": "Point", "coordinates": [-48.274, -18.916]}}, {"type": "Feature", "properties": {"Provider": "Cloudflare", "Service Name": "CDN", "URL": "https://www.cloudflare.com/en-gb/network/", "City": "Valpara\u00edso", "Country": "Chile", "Status": "", "Zone Name": "", "Region": "Latin America & the Caribbean", "Parent Region": ""}, "geometry": {"type": "Point", "coordinates": [-71.623, -33.049]}}, {"type": "Feature", "properties": {"Provider": "Cloudflare", "Service Name": "CDN", "URL": "https://www.cloudflare.com/en-gb/network/", "City": "Willemstad", "Country": "Cura\u00e7ao", "Status": "", "Zone Name": "", "Region": "Latin America & the Caribbean", "Parent Region": ""}, "geometry": {"type": "Point", "coordinates": [-68.938, 12.114]}}, {"type": "Feature", "properties": {"Provider": "Cloudflare", "Service Name": "CDN", "URL": "https://www.cloudflare.com/en-gb/network/", "City": "Accra", "Country": "Ghana", "Status": "", "Zone Name": "", "Region": "Africa", "Parent Region": ""}, "geometry": {"type": "Point", "coordinates": [-0.197, 5.557]}}, {"type": "Feature", "properties": {"Provider": "Cloudflare", "Service Name": "CDN", "URL": "https://www.cloudflare.com/en-gb/network/", "City": "Algiers", "Country": "Algeria", "Status": "", "Zone Name": "", "Region": "Africa", "Parent Region": ""}, "geometry": {"type": "Point", "coordinates": [3.062, 36.778]}}, {"type": "Feature", "properties": {"Provider": "Cloudflare", "Service Name": "CDN", "URL": "https://www.cloudflare.com/en-gb/network/", "City": "Antananarivo", "Country": "Madagascar", "Status": "", "Zone Name": "", "Region": "Africa", "Parent Region": ""}, "geometry": {"type": "Point", "coordinates": [46.715, -18.78]}}, {"type": "Feature", "properties": {"Provider": "Cloudflare", "Service Name": "CDN", "URL": "https://www.cloudflare.com/en-gb/network/", "City": "Cape Town", "Country": "South Africa", "Status": "", "Zone Name": "", "Region": "Africa", "Parent Region": ""}, "geometry": {"type": "Point", "coordinates": [18.421, -33.925]}}, {"type": "Feature", "properties": {"Provider": "Cloudflare", "Service Name": "CDN", "URL": "https://www.cloudflare.com/en-gb/network/", "City": "Casablanca", "Country": "Morocco", "Status": "", "Zone Name": "", "Region": "Africa", "Parent Region": ""}, "geometry": {"type": "Point", "coordinates": [-7.623, 33.591]}}, {"type": "Feature", "properties": {"Provider": "Cloudflare", "Service Name": "CDN", "URL": "https://www.cloudflare.com/en-gb/network/", "City": "Dakar", "Country": "Senegal", "Status": "", "Zone Name": "", "Region": "Africa", "Parent Region": ""}, "geometry": {"type": "Point", "coordinates": [-17.452, 14.696]}}, {"type": "Feature", "properties": {"Provider": "Cloudflare", "Service Name": "CDN", "URL": "https://www.cloudflare.com/en-gb/network/", "City": "Dar Es Salaam", "Country": "Tanzania", "Status": "", "Zone Name": "", "Region": "Africa", "Parent Region": ""}, "geometry": {"type": "Point", "coordinates": [39.28, -6.815]}}, {"type": "Feature", "properties": {"Provider": "Cloudflare", "Service Name": "CDN", "URL": "https://www.cloudflare.com/en-gb/network/", "City": "Djibouti", "Country": "Djibouti", "Status": "", "Zone Name": "", "Region": "Africa", "Parent Region": ""}, "geometry": {"type": "Point", "coordinates": [42.844, 11.816]}}, {"type": "Feature", "properties": {"Provider": "Cloudflare", "Service Name": "CDN", "URL": "https://www.cloudflare.com/en-gb/network/", "City": "Durban", "Country": "South Africa", "Status": "", "Zone Name": "", "Region": "Africa", "Parent Region": ""}, "geometry": {"type": "Point", "coordinates": [31.011, -29.859]}}, {"type": "Feature", "properties": {"Provider": "Cloudflare", "Service Name": "CDN", "URL": "https://www.cloudflare.com/en-gb/network/", "City": "Gaborone", "Country": "Botswana", "Status": "", "Zone Name": "", "Region": "Africa", "Parent Region": ""}, "geometry": {"type": "Point", "coordinates": [25.909, -24.659]}}, {"type": "Feature", "properties": {"Provider": "Cloudflare", "Service Name": "CDN", "URL": "https://www.cloudflare.com/en-gb/network/", "City": "Harare", "Country": "Zimbabwe", "Status": "", "Zone Name": "", "Region": "Africa", "Parent Region": ""}, "geometry": {"type": "Point", "coordinates": [31.043, -17.828]}}, {"type": "Feature", "properties": {"Provider": "Cloudflare", "Service Name": "CDN", "URL": "https://www.cloudflare.com/en-gb/network/", "City": "Johannesburg", "Country": "South Africa", "Status": "", "Zone Name": "", "Region": "Africa", "Parent Region": ""}, "geometry": {"type": "Point", "coordinates": [28.053, -26.203]}}, {"type": "Feature", "properties": {"Provider": "Cloudflare", "Service Name": "CDN", "URL": "https://www.cloudflare.com/en-gb/network/", "City": "Kigali", "Country": "Rwanda", "Status": "", "Zone Name": "", "Region": "Africa", "Parent Region": ""}, "geometry": {"type": "Point", "coordinates": [30.059, -1.947]}}, {"type": "Feature", "properties": {"Provider": "Cloudflare", "Service Name": "CDN", "URL": "https://www.cloudflare.com/en-gb/network/", "City": "Lagos", "Country": "Nigeria", "Status": "", "Zone Name": "", "Region": "Africa", "Parent Region": ""}, "geometry": {"type": "Point", "coordinates": [3.399, 6.456]}}, {"type": "Feature", "properties": {"Provider": "Cloudflare", "Service Name": "CDN", "URL": "https://www.cloudflare.com/en-gb/network/", "City": "Luanda", "Country": "Angola", "Status": "", "Zone Name": "", "Region": "Africa", "Parent Region": ""}, "geometry": {"type": "Point", "coordinates": [13.241, -8.824]}}, {"type": "Feature", "properties": {"Provider": "Cloudflare", "Service Name": "CDN", "URL": "https://www.cloudflare.com/en-gb/network/", "City": "Maputo", "Country": "Mozambique", "Status": "", "Zone Name": "", "Region": "Africa", "Parent Region": ""}, "geometry": {"type": "Point", "coordinates": [32.571, -25.964]}}, {"type": "Feature", "properties": {"Provider": "Cloudflare", "Service Name": "CDN", "URL": "https://www.cloudflare.com/en-gb/network/", "City": "Mombasa", "Country": "Kenya", "Status": "", "Zone Name": "", "Region": "Africa", "Parent Region": ""}, "geometry": {"type": "Point", "coordinates": [39.67, -4.046]}}, {"type": "Feature", "properties": {"Provider": "Cloudflare", "Service Name": "CDN", "URL": "https://www.cloudflare.com/en-gb/network/", "City": "Monrovia", "Country": "Liberia", "Status": "", "Zone Name": "", "Region": "Africa", "Parent Region": ""}, "geometry": {"type": "Point", "coordinates": [-10.795, 6.331]}}, {"type": "Feature", "properties": {"Provider": "Cloudflare", "Service Name": "CDN", "URL": "https://www.cloudflare.com/en-gb/network/", "City": "Nairobi", "Country": "Kenya", "Status": "", "Zone Name": "", "Region": "Africa", "Parent Region": ""}, "geometry": {"type": "Point", "coordinates": [36.821, -1.284]}}, {"type": "Feature", "properties": {"Provider": "Cloudflare", "Service Name": "CDN", "URL": "https://www.cloudflare.com/en-gb/network/", "City": "Port Louis", "Country": "Mauritius", "Status": "", "Zone Name": "", "Region": "Africa", "Parent Region": ""}, "geometry": {"type": "Point", "coordinates": [57.502, -20.162]}}, {"type": "Feature", "properties": {"Provider": "Cloudflare", "Service Name": "CDN", "URL": "https://www.cloudflare.com/en-gb/network/", "City": "Reunion", "Country": "France", "Status": "", "Zone Name": "", "Region": "Africa", "Parent Region": ""}, "geometry": {"type": "Point", "coordinates": [55.541, -21.131]}}, {"type": "Feature", "properties": {"Provider": "Cloudflare", "Service Name": "CDN", "URL": "https://www.cloudflare.com/en-gb/network/", "City": "Tunis", "Country": "Tunisia", "Status": "", "Zone Name": "", "Region": "Africa", "Parent Region": ""}, "geometry": {"type": "Point", "coordinates": [9.402, 33.84]}}, {"type": "Feature", "properties": {"Provider": "Cloudflare", "Service Name": "CDN", "URL": "https://www.cloudflare.com/en-gb/network/", "City": "Amsterdam", "Country": "Netherlands", "Status": "", "Zone Name": "", "Region": "Europe", "Parent Region": ""}, "geometry": {"type": "Point", "coordinates": [4.894, 52.377]}}, {"type": "Feature", "properties": {"Provider": "Cloudflare", "Service Name": "CDN", "URL": "https://www.cloudflare.com/en-gb/network/", "City": "Athens", "Country": "Greece", "Status": "", "Zone Name": "", "Region": "Europe", "Parent Region": ""}, "geometry": {"type": "Point", "coordinates": [23.739, 37.972]}}, {"type": "Feature", "properties": {"Provider": "Cloudflare", "Service Name": "CDN", "URL": "https://www.cloudflare.com/en-gb/network/", "City": "Barcelona", "Country": "Spain", "Status": "", "Zone Name": "", "Region": "Europe", "Parent Region": ""}, "geometry": {"type": "Point", "coordinates": [2.177, 41.382]}}, {"type": "Feature", "properties": {"Provider": "Cloudflare", "Service Name": "CDN", "URL": "https://www.cloudflare.com/en-gb/network/", "City": "Belgrade", "Country": "Serbia", "Status": "", "Zone Name": "", "Region": "Europe", "Parent Region": ""}, "geometry": {"type": "Point", "coordinates": [20.459, 44.816]}}, {"type": "Feature", "properties": {"Provider": "Cloudflare", "Service Name": "CDN", "URL": "https://www.cloudflare.com/en-gb/network/", "City": "Berlin", "Country": "Germany", "Status": "", "Zone Name": "", "Region": "Europe", "Parent Region": ""}, "geometry": {"type": "Point", "coordinates": [13.386, 52.517]}}, {"type": "Feature", "properties": {"Provider": "Cloudflare", "Service Name": "CDN", "URL": "https://www.cloudflare.com/en-gb/network/", "City": "Brussels", "Country": "Belgium", "Status": "", "Zone Name": "", "Region": "Europe", "Parent Region": ""}, "geometry": {"type": "Point", "coordinates": [4.356, 50.847]}}, {"type": "Feature", "properties": {"Provider": "Cloudflare", "Service Name": "CDN", "URL": "https://www.cloudflare.com/en-gb/network/", "City": "Bucharest", "Country": "Romania", "Status": "", "Zone Name": "", "Region": "Europe", "Parent Region": ""}, "geometry": {"type": "Point", "coordinates": [26.099, 44.44]}}, {"type": "Feature", "properties": {"Provider": "Cloudflare", "Service Name": "CDN", "URL": "https://www.cloudflare.com/en-gb/network/", "City": "Budapest", "Country": "Hungary", "Status": "", "Zone Name": "", "Region": "Europe", "Parent Region": ""}, "geometry": {"type": "Point", "coordinates": [19.044, 47.498]}}, {"type": "Feature", "properties": {"Provider": "Cloudflare", "Service Name": "CDN", "URL": "https://www.cloudflare.com/en-gb/network/", "City": "Chi\u0219in\u0103u", "Country": "Moldova, Republic of", "Status": "", "Zone Name": "", "Region": "Europe", "Parent Region": ""}, "geometry": {"type": "Point", "coordinates": [28.831, 47.025]}}, {"type": "Feature", "properties": {"Provider": "Cloudflare", "Service Name": "CDN", "URL": "https://www.cloudflare.com/en-gb/network/", "City": "Copenhagen", "Country": "Denmark", "Status": "", "Zone Name": "", "Region": "Europe", "Parent Region": ""}, "geometry": {"type": "Point", "coordinates": [12.574, 55.69]}}, {"type": "Feature", "properties": {"Provider": "Cloudflare", "Service Name": "CDN", "URL": "https://www.cloudflare.com/en-gb/network/", "City": "Cork", "Country": "Ireland", "Status": "", "Zone Name": "", "Region": "Europe", "Parent Region": ""}, "geometry": {"type": "Point", "coordinates": [-8.469, 51.899]}}, {"type": "Feature", "properties": {"Provider": "Cloudflare", "Service Name": "CDN", "URL": "https://www.cloudflare.com/en-gb/network/", "City": "Dublin", "Country": "Ireland", "Status": "", "Zone Name": "", "Region": "Europe", "Parent Region": ""}, "geometry": {"type": "Point", "coordinates": [-6.262, 53.347]}}, {"type": "Feature", "properties": {"Provider": "Cloudflare", "Service Name": "CDN", "URL": "https://www.cloudflare.com/en-gb/network/", "City": "D\u00fcsseldorf", "Country": "Germany", "Status": "", "Zone Name": "", "Region": "Europe", "Parent Region": ""}, "geometry": {"type": "Point", "coordinates": [6.778, 51.221]}}, {"type": "Feature", "properties": {"Provider": "Cloudflare", "Service Name": "CDN", "URL": "https://www.cloudflare.com/en-gb/network/", "City": "Edinburgh", "Country": "United Kingdom", "Status": "", "Zone Name": "", "Region": "Europe", "Parent Region": ""}, "geometry": {"type": "Point", "coordinates": [-3.184, 55.949]}}, {"type": "Feature", "properties": {"Provider": "Cloudflare", "Service Name": "CDN", "URL": "https://www.cloudflare.com/en-gb/network/", "City": "Ekaterinburg", "Country": "Russian Federation", "Status": "", "Zone Name": "", "Region": "Europe", "Parent Region": ""}, "geometry": {"type": "Point", "coordinates": [60.605, 56.838]}}, {"type": "Feature", "properties": {"Provider": "Cloudflare", "Service Name": "CDN", "URL": "https://www.cloudflare.com/en-gb/network/", "City": "Frankfurt", "Country": "Germany", "Status": "", "Zone Name": "", "Region": "Europe", "Parent Region": ""}, "geometry": {"type": "Point", "coordinates": [8.684, 50.113]}}, {"type": "Feature", "properties": {"Provider": "Cloudflare", "Service Name": "CDN", "URL": "https://www.cloudflare.com/en-gb/network/", "City": "Geneva", "Country": "Switzerland", "Status": "", "Zone Name": "", "Region": "Europe", "Parent Region": ""}, "geometry": {"type": "Point", "coordinates": [6.145, 46.204]}}, {"type": "Feature", "properties": {"Provider": "Cloudflare", "Service Name": "CDN", "URL": "https://www.cloudflare.com/en-gb/network/", "City": "Gothenburg", "Country": "Sweden", "Status": "", "Zone Name": "", "Region": "Europe", "Parent Region": ""}, "geometry": {"type": "Point", "coordinates": [11.965, 57.703]}}, {"type": "Feature", "properties": {"Provider": "Cloudflare", "Service Name": "CDN", "URL": "https://www.cloudflare.com/en-gb/network/", "City": "Hamburg", "Country": "Germany", "Status": "", "Zone Name": "", "Region": "Europe", "Parent Region": ""}, "geometry": {"type": "Point", "coordinates": [10.0, 53.547]}}, {"type": "Feature", "properties": {"Provider": "Cloudflare", "Service Name": "CDN", "URL": "https://www.cloudflare.com/en-gb/network/", "City": "Helsinki", "Country": "Finland", "Status": "", "Zone Name": "", "Region": "Europe", "Parent Region": ""}, "geometry": {"type": "Point", "coordinates": [24.939, 60.168]}}, {"type": "Feature", "properties": {"Provider": "Cloudflare", "Service Name": "CDN", "URL": "https://www.cloudflare.com/en-gb/network/", "City": "Istanbul", "Country": "Turkey", "Status": "", "Zone Name": "", "Region": "Europe", "Parent Region": ""}, "geometry": {"type": "Point", "coordinates": [28.97, 41.005]}}, {"type": "Feature", "properties": {"Provider": "Cloudflare", "Service Name": "CDN", "URL": "https://www.cloudflare.com/en-gb/network/", "City": "Khabarovsk", "Country": "Russian Federation", "Status": "", "Zone Name": "", "Region": "Europe", "Parent Region": ""}, "geometry": {"type": "Point", "coordinates": [136.124, 51.627]}}, {"type": "Feature", "properties": {"Provider": "Cloudflare", "Service Name": "CDN", "URL": "https://www.cloudflare.com/en-gb/network/", "City": "Krasnoyarsk", "Country": "Russian Federation", "Status": "", "Zone Name": "", "Region": "Europe", "Parent Region": ""}, "geometry": {"type": "Point", "coordinates": [92.875, 56.005]}}, {"type": "Feature", "properties": {"Provider": "Cloudflare", "Service Name": "CDN", "URL": "https://www.cloudflare.com/en-gb/network/", "City": "Kyiv", "Country": "Ukraine", "Status": "", "Zone Name": "", "Region": "Europe", "Parent Region": ""}, "geometry": {"type": "Point", "coordinates": [30.527, 50.452]}}, {"type": "Feature", "properties": {"Provider": "Cloudflare", "Service Name": "CDN", "URL": "https://www.cloudflare.com/en-gb/network/", "City": "Lisbon", "Country": "Portugal", "Status": "", "Zone Name": "", "Region": "Europe", "Parent Region": ""}, "geometry": {"type": "Point", "coordinates": [-9.135, 38.712]}}, {"type": "Feature", "properties": {"Provider": "Cloudflare", "Service Name": "CDN", "URL": "https://www.cloudflare.com/en-gb/network/", "City": "London", "Country": "United Kingdom", "Status": "", "Zone Name": "", "Region": "Europe", "Parent Region": ""}, "geometry": {"type": "Point", "coordinates": [-0.126, 51.506]}}, {"type": "Feature", "properties": {"Provider": "Cloudflare", "Service Name": "CDN", "URL": "https://www.cloudflare.com/en-gb/network/", "City": "Luxembourg City", "Country": "Luxembourg", "Status": "", "Zone Name": "", "Region": "Europe", "Parent Region": ""}, "geometry": {"type": "Point", "coordinates": [6.126, 49.615]}}, {"type": "Feature", "properties": {"Provider": "Cloudflare", "Service Name": "CDN", "URL": "https://www.cloudflare.com/en-gb/network/", "City": "Madrid", "Country": "Spain", "Status": "", "Zone Name": "", "Region": "Europe", "Parent Region": ""}, "geometry": {"type": "Point", "coordinates": [-3.703, 40.413]}}, {"type": "Feature", "properties": {"Provider": "Cloudflare", "Service Name": "CDN", "URL": "https://www.cloudflare.com/en-gb/network/", "City": "Manchester", "Country": "United Kingdom", "Status": "", "Zone Name": "", "Region": "Europe", "Parent Region": ""}, "geometry": {"type": "Point", "coordinates": [-2.244, 53.479]}}, {"type": "Feature", "properties": {"Provider": "Cloudflare", "Service Name": "CDN", "URL": "https://www.cloudflare.com/en-gb/network/", "City": "Marseille", "Country": "France", "Status": "", "Zone Name": "", "Region": "Europe", "Parent Region": ""}, "geometry": {"type": "Point", "coordinates": [5.367, 43.297]}}, {"type": "Feature", "properties": {"Provider": "Cloudflare", "Service Name": "CDN", "URL": "https://www.cloudflare.com/en-gb/network/", "City": "Milan", "Country": "Italy", "Status": "", "Zone Name": "", "Region": "Europe", "Parent Region": ""}, "geometry": {"type": "Point", "coordinates": [9.191, 45.465]}}, {"type": "Feature", "properties": {"Provider": "Cloudflare", "Service Name": "CDN", "URL": "https://www.cloudflare.com/en-gb/network/", "City": "Minsk", "Country": "Belarus", "Status": "", "Zone Name": "", "Region": "Europe", "Parent Region": ""}, "geometry": {"type": "Point", "coordinates": [27.56, 53.901]}}, {"type": "Feature", "properties": {"Provider": "Cloudflare", "Service Name": "CDN", "URL": "https://www.cloudflare.com/en-gb/network/", "City": "Moscow", "Country": "Russian Federation", "Status": "", "Zone Name": "", "Region": "Europe", "Parent Region": ""}, "geometry": {"type": "Point", "coordinates": [37.616, 55.755]}}, {"type": "Feature", "properties": {"Provider": "Cloudflare", "Service Name": "CDN", "URL": "https://www.cloudflare.com/en-gb/network/", "City": "Munich", "Country": "Germany", "Status": "", "Zone Name": "", "Region": "Europe", "Parent Region": ""}, "geometry": {"type": "Point", "coordinates": [11.578, 48.137]}}, {"type": "Feature", "properties": {"Provider": "Cloudflare", "Service Name": "CDN", "URL": "https://www.cloudflare.com/en-gb/network/", "City": "Nicosia", "Country": "Cyprus", "Status": "", "Zone Name": "", "Region": "Europe", "Parent Region": ""}, "geometry": {"type": "Point", "coordinates": [33.362, 35.178]}}, {"type": "Feature", "properties": {"Provider": "Cloudflare", "Service Name": "CDN", "URL": "https://www.cloudflare.com/en-gb/network/", "City": "Oslo", "Country": "Norway", "Status": "", "Zone Name": "", "Region": "Europe", "Parent Region": ""}, "geometry": {"type": "Point", "coordinates": [10.742, 59.914]}}, {"type": "Feature", "properties": {"Provider": "Cloudflare", "Service Name": "CDN", "URL": "https://www.cloudflare.com/en-gb/network/", "City": "Palermo", "Country": "Italy", "Status": "", "Zone Name": "", "Region": "Europe", "Parent Region": ""}, "geometry": {"type": "Point", "coordinates": [13.355, 38.11]}}, {"type": "Feature", "properties": {"Provider": "Cloudflare", "Service Name": "CDN", "URL": "https://www.cloudflare.com/en-gb/network/", "City": "Paris", "Country": "France", "Status": "", "Zone Name": "", "Region": "Europe", "Parent Region": ""}, "geometry": {"type": "Point", "coordinates": [2.345, 48.854]}}, {"type": "Feature", "properties": {"Provider": "Cloudflare", "Service Name": "CDN", "URL": "https://www.cloudflare.com/en-gb/network/", "City": "Prague", "Country": "Czechia", "Status": "", "Zone Name": "", "Region": "Europe", "Parent Region": ""}, "geometry": {"type": "Point", "coordinates": [14.419, 50.086]}}, {"type": "Feature", "properties": {"Provider": "Cloudflare", "Service Name": "CDN", "URL": "https://www.cloudflare.com/en-gb/network/", "City": "Reykjav\u00edk", "Country": "Iceland", "Status": "", "Zone Name": "", "Region": "Europe", "Parent Region": ""}, "geometry": {"type": "Point", "coordinates": [-21.94, 64.145]}}, {"type": "Feature", "properties": {"Provider": "Cloudflare", "Service Name": "CDN", "URL": "https://www.cloudflare.com/en-gb/network/", "City": "Riga", "Country": "Latvia", "Status": "", "Zone Name": "", "Region": "Europe", "Parent Region": ""}, "geometry": {"type": "Point", "coordinates": [24.107, 56.945]}}, {"type": "Feature", "properties": {"Provider": "Cloudflare", "Service Name": "CDN", "URL": "https://www.cloudflare.com/en-gb/network/", "City": "Rome", "Country": "Italy", "Status": "", "Zone Name": "", "Region": "Europe", "Parent Region": ""}, "geometry": {"type": "Point", "coordinates": [12.482, 41.893]}}, {"type": "Feature", "properties": {"Provider": "Cloudflare", "Service Name": "CDN", "URL": "https://www.cloudflare.com/en-gb/network/", "City": "Sofia", "Country": "Bulgaria", "Status": "", "Zone Name": "", "Region": "Europe", "Parent Region": ""}, "geometry": {"type": "Point", "coordinates": [23.32, 42.693]}}, {"type": "Feature", "properties": {"Provider": "Cloudflare", "Service Name": "CDN", "URL": "https://www.cloudflare.com/en-gb/network/", "City": "St. Petersburg", "Country": "Russian Federation", "Status": "", "Zone Name": "", "Region": "Europe", "Parent Region": ""}, "geometry": {"type": "Point", "coordinates": [30.319, 59.939]}}, {"type": "Feature", "properties": {"Provider": "Cloudflare", "Service Name": "CDN", "URL": "https://www.cloudflare.com/en-gb/network/", "City": "Stockholm", "Country": "Sweden", "Status": "", "Zone Name": "", "Region": "Europe", "Parent Region": ""}, "geometry": {"type": "Point", "coordinates": [18.072, 59.329]}}, {"type": "Feature", "properties": {"Provider": "Cloudflare", "Service Name": "CDN", "URL": "https://www.cloudflare.com/en-gb/network/", "City": "Tallinn", "Country": "Estonia", "Status": "", "Zone Name": "", "Region": "Europe", "Parent Region": ""}, "geometry": {"type": "Point", "coordinates": [24.745, 59.436]}}, {"type": "Feature", "properties": {"Provider": "Cloudflare", "Service Name": "CDN", "URL": "https://www.cloudflare.com/en-gb/network/", "City": "Thessaloniki", "Country": "Greece", "Status": "", "Zone Name": "", "Region": "Europe", "Parent Region": ""}, "geometry": {"type": "Point", "coordinates": [22.933, 40.644]}}, {"type": "Feature", "properties": {"Provider": "Cloudflare", "Service Name": "CDN", "URL": "https://www.cloudflare.com/en-gb/network/", "City": "Vienna", "Country": "Austria", "Status": "", "Zone Name": "", "Region": "Europe", "Parent Region": ""}, "geometry": {"type": "Point", "coordinates": [16.371, 48.206]}}, {"type": "Feature", "properties": {"Provider": "Cloudflare", "Service Name": "CDN", "URL": "https://www.cloudflare.com/en-gb/network/", "City": "Vilnius", "Country": "Lithuania", "Status": "", "Zone Name": "", "Region": "Europe", "Parent Region": ""}, "geometry": {"type": "Point", "coordinates": [25.284, 54.685]}}, {"type": "Feature", "properties": {"Provider": "Cloudflare", "Service Name": "CDN", "URL": "https://www.cloudflare.com/en-gb/network/", "City": "Warsaw", "Country": "Poland", "Status": "", "Zone Name": "", "Region": "Europe", "Parent Region": ""}, "geometry": {"type": "Point", "coordinates": [21.008, 52.232]}}, {"type": "Feature", "properties": {"Provider": "Cloudflare", "Service Name": "CDN", "URL": "https://www.cloudflare.com/en-gb/network/", "City": "Zagreb", "Country": "Croatia", "Status": "", "Zone Name": "", "Region": "Europe", "Parent Region": ""}, "geometry": {"type": "Point", "coordinates": [15.962, 45.838]}}, {"type": "Feature", "properties": {"Provider": "Cloudflare", "Service Name": "CDN", "URL": "https://www.cloudflare.com/en-gb/network/", "City": "Z\u00fcrich", "Country": "Switzerland", "Status": "", "Zone Name": "", "Region": "Europe", "Parent Region": ""}, "geometry": {"type": "Point", "coordinates": [8.537, 47.373]}}, {"type": "Feature", "properties": {"Provider": "Cloudflare", "Service Name": "CDN", "URL": "https://www.cloudflare.com/en-gb/network/", "City": "Amman", "Country": "Jordan", "Status": "", "Zone Name": "", "Region": "Middle East", "Parent Region": ""}, "geometry": {"type": "Point", "coordinates": [35.924, 31.953]}}, {"type": "Feature", "properties": {"Provider": "Cloudflare", "Service Name": "CDN", "URL": "https://www.cloudflare.com/en-gb/network/", "City": "Baghdad", "Country": "Iraq", "Status": "", "Zone Name": "", "Region": "Middle East", "Parent Region": ""}, "geometry": {"type": "Point", "coordinates": [44.39, 33.302]}}, {"type": "Feature", "properties": {"Provider": "Cloudflare", "Service Name": "CDN", "URL": "https://www.cloudflare.com/en-gb/network/", "City": "Basra", "Country": "Iraq", "Status": "", "Zone Name": "", "Region": "Middle East", "Parent Region": ""}, "geometry": {"type": "Point", "coordinates": [47.809, 30.494]}}, {"type": "Feature", "properties": {"Provider": "Cloudflare", "Service Name": "CDN", "URL": "https://www.cloudflare.com/en-gb/network/", "City": "Beirut", "Country": "Lebanon", "Status": "", "Zone Name": "", "Region": "Middle East", "Parent Region": ""}, "geometry": {"type": "Point", "coordinates": [35.5, 33.892]}}, {"type": "Feature", "properties": {"Provider": "Cloudflare", "Service Name": "CDN", "URL": "https://www.cloudflare.com/en-gb/network/", "City": "Dammam", "Country": "Saudi Arabia", "Status": "", "Zone Name": "", "Region": "Middle East", "Parent Region": ""}, "geometry": {"type": "Point", "coordinates": [50.101, 26.433]}}, {"type": "Feature", "properties": {"Provider": "Cloudflare", "Service Name": "CDN", "URL": "https://www.cloudflare.com/en-gb/network/", "City": "Doha", "Country": "Qatar", "Status": "", "Zone Name": "", "Region": "Middle East", "Parent Region": ""}, "geometry": {"type": "Point", "coordinates": [51.524, 25.282]}}, {"type": "Feature", "properties": {"Provider": "Cloudflare", "Service Name": "CDN", "URL": "https://www.cloudflare.com/en-gb/network/", "City": "Dubai", "Country": "United Arab Emirates", "Status": "", "Zone Name": "", "Region": "Middle East", "Parent Region": ""}, "geometry": {"type": "Point", "coordinates": [55.187, 25.078]}}, {"type": "Feature", "properties": {"Provider": "Cloudflare", "Service Name": "CDN", "URL": "https://www.cloudflare.com/en-gb/network/", "City": "Erbil", "Country": "Iraq", "Status": "", "Zone Name": "", "Region": "Middle East", "Parent Region": ""}, "geometry": {"type": "Point", "coordinates": [44.014, 36.193]}}, {"type": "Feature", "properties": {"Provider": "Cloudflare", "Service Name": "CDN", "URL": "https://www.cloudflare.com/en-gb/network/", "City": "Haifa", "Country": "Israel", "Status": "", "Zone Name": "", "Region": "Middle East", "Parent Region": ""}, "geometry": {"type": "Point", "coordinates": [34.997, 32.823]}}, {"type": "Feature", "properties": {"Provider": "Cloudflare", "Service Name": "CDN", "URL": "https://www.cloudflare.com/en-gb/network/", "City": "Jeddah", "Country": "Saudi Arabia", "Status": "", "Zone Name": "", "Region": "Middle East", "Parent Region": ""}, "geometry": {"type": "Point", "coordinates": [39.166, 21.578]}}, {"type": "Feature", "properties": {"Provider": "Cloudflare", "Service Name": "CDN", "URL": "https://www.cloudflare.com/en-gb/network/", "City": "Kuwait City", "Country": "Kuwait", "Status": "", "Zone Name": "", "Region": "Middle East", "Parent Region": ""}, "geometry": {"type": "Point", "coordinates": [47.973, 29.382]}}, {"type": "Feature", "properties": {"Provider": "Cloudflare", "Service Name": "CDN", "URL": "https://www.cloudflare.com/en-gb/network/", "City": "Manama", "Country": "Bahrain", "Status": "", "Zone Name": "", "Region": "Middle East", "Parent Region": ""}, "geometry": {"type": "Point", "coordinates": [50.581, 26.226]}}, {"type": "Feature", "properties": {"Provider": "Cloudflare", "Service Name": "CDN", "URL": "https://www.cloudflare.com/en-gb/network/", "City": "Muscat", "Country": "Oman", "Status": "", "Zone Name": "", "Region": "Middle East", "Parent Region": ""}, "geometry": {"type": "Point", "coordinates": [58.382, 23.59]}}, {"type": "Feature", "properties": {"Provider": "Cloudflare", "Service Name": "CDN", "URL": "https://www.cloudflare.com/en-gb/network/", "City": "Najaf", "Country": "Iraq", "Status": "", "Zone Name": "", "Region": "Middle East", "Parent Region": ""}, "geometry": {"type": "Point", "coordinates": [44.33, 31.997]}}, {"type": "Feature", "properties": {"Provider": "Cloudflare", "Service Name": "CDN", "URL": "https://www.cloudflare.com/en-gb/network/", "City": "Ramallah", "Country": "", "Status": "", "Zone Name": "", "Region": "Middle East", "Parent Region": ""}, "geometry": {"type": "Point", "coordinates": [35.198, 31.903]}}, {"type": "Feature", "properties": {"Provider": "Cloudflare", "Service Name": "CDN", "URL": "https://www.cloudflare.com/en-gb/network/", "City": "Riyadh", "Country": "Saudi Arabia", "Status": "", "Zone Name": "", "Region": "Middle East", "Parent Region": ""}, "geometry": {"type": "Point", "coordinates": [46.714, 24.636]}}, {"type": "Feature", "properties": {"Provider": "Cloudflare", "Service Name": "CDN", "URL": "https://www.cloudflare.com/en-gb/network/", "City": "Tel Aviv", "Country": "Israel", "Status": "", "Zone Name": "", "Region": "Middle East", "Parent Region": ""}, "geometry": {"type": "Point", "coordinates": [34.781, 32.081]}}, {"type": "Feature", "properties": {"Provider": "Cloudflare", "Service Name": "CDN", "URL": "https://www.cloudflare.com/en-gb/network/", "City": "Ahmedabad", "Country": "India", "Status": "", "Zone Name": "", "Region": "Asia", "Parent Region": ""}, "geometry": {"type": "Point", "coordinates": [72.581, 23.025]}}, {"type": "Feature", "properties": {"Provider": "Cloudflare", "Service Name": "CDN", "URL": "https://www.cloudflare.com/en-gb/network/", "City": "Almaty", "Country": "Kazakhstan", "Status": "", "Zone Name": "", "Region": "Asia", "Parent Region": ""}, "geometry": {"type": "Point", "coordinates": [76.942, 43.238]}}, {"type": "Feature", "properties": {"Provider": "Cloudflare", "Service Name": "CDN", "URL": "https://www.cloudflare.com/en-gb/network/", "City": "Astara", "Country": "Azerbaijan", "Status": "", "Zone Name": "", "Region": "Asia", "Parent Region": ""}, "geometry": {"type": "Point", "coordinates": [48.828, 38.512]}}, {"type": "Feature", "properties": {"Provider": "Cloudflare", "Service Name": "CDN", "URL": "https://www.cloudflare.com/en-gb/network/", "City": "Baku", "Country": "Azerbaijan", "Status": "", "Zone Name": "", "Region": "Asia", "Parent Region": ""}, "geometry": {"type": "Point", "coordinates": [49.833, 40.378]}}, {"type": "Feature", "properties": {"Provider": "Cloudflare", "Service Name": "CDN", "URL": "https://www.cloudflare.com/en-gb/network/", "City": "Bandar Seri Begawan", "Country": "Brunei Darussalam", "Status": "", "Zone Name": "", "Region": "Asia", "Parent Region": ""}, "geometry": {"type": "Point", "coordinates": [114.938, 4.889]}}, {"type": "Feature", "properties": {"Provider": "Cloudflare", "Service Name": "CDN", "URL": "https://www.cloudflare.com/en-gb/network/", "City": "Bangkok", "Country": "Thailand", "Status": "", "Zone Name": "", "Region": "Asia", "Parent Region": ""}, "geometry": {"type": "Point", "coordinates": [100.491, 13.752]}}, {"type": "Feature", "properties": {"Provider": "Cloudflare", "Service Name": "CDN", "URL": "https://www.cloudflare.com/en-gb/network/", "City": "Bengaluru", "Country": "India", "Status": "", "Zone Name": "", "Region": "Asia", "Parent Region": ""}, "geometry": {"type": "Point", "coordinates": [77.589, 12.979]}}, {"type": "Feature", "properties": {"Provider": "Cloudflare", "Service Name": "CDN", "URL": "https://www.cloudflare.com/en-gb/network/", "City": "Bhubaneshwar", "Country": "India", "Status": "", "Zone Name": "", "Region": "Asia", "Parent Region": ""}, "geometry": {"type": "Point", "coordinates": [85.84, 20.257]}}, {"type": "Feature", "properties": {"Provider": "Cloudflare", "Service Name": "CDN", "URL": "https://www.cloudflare.com/en-gb/network/", "City": "Cagayan", "Country": "Philippines", "Status": "", "Zone Name": "", "Region": "Asia", "Parent Region": ""}, "geometry": {"type": "Point", "coordinates": [121.835, 17.996]}}, {"type": "Feature", "properties": {"Provider": "Cloudflare", "Service Name": "CDN", "URL": "https://www.cloudflare.com/en-gb/network/", "City": "Cebu", "Country": "Philippines", "Status": "", "Zone Name": "", "Region": "Asia", "Parent Region": ""}, "geometry": {"type": "Point", "coordinates": [123.906, 10.293]}}, {"type": "Feature", "properties": {"Provider": "Cloudflare", "Service Name": "CDN", "URL": "https://www.cloudflare.com/en-gb/network/", "City": "Chandigarh", "Country": "India", "Status": "", "Zone Name": "", "Region": "Asia", "Parent Region": ""}, "geometry": {"type": "Point", "coordinates": [76.783, 30.727]}}, {"type": "Feature", "properties": {"Provider": "Cloudflare", "Service Name": "CDN", "URL": "https://www.cloudflare.com/en-gb/network/", "City": "Chennai", "Country": "India", "Status": "", "Zone Name": "", "Region": "Asia", "Parent Region": ""}, "geometry": {"type": "Point", "coordinates": [80.27, 13.08]}}, {"type": "Feature", "properties": {"Provider": "Cloudflare", "Service Name": "CDN", "URL": "https://www.cloudflare.com/en-gb/network/", "City": "Chiang Mai", "Country": "Thailand", "Status": "", "Zone Name": "", "Region": "Asia", "Parent Region": ""}, "geometry": {"type": "Point", "coordinates": [98.983, 18.793]}}, {"type": "Feature", "properties": {"Provider": "Cloudflare", "Service Name": "CDN", "URL": "https://www.cloudflare.com/en-gb/network/", "City": "Chittagong", "Country": "Bangladesh", "Status": "", "Zone Name": "", "Region": "Asia", "Parent Region": ""}, "geometry": {"type": "Point", "coordinates": [91.788, 22.687]}}, {"type": "Feature", "properties": {"Provider": "Cloudflare", "Service Name": "CDN", "URL": "https://www.cloudflare.com/en-gb/network/", "City": "Colombo", "Country": "Sri Lanka", "Status": "", "Zone Name": "", "Region": "Asia", "Parent Region": ""}, "geometry": {"type": "Point", "coordinates": [79.855, 6.936]}}, {"type": "Feature", "properties": {"Provider": "Cloudflare", "Service Name": "CDN", "URL": "https://www.cloudflare.com/en-gb/network/", "City": "Dhaka", "Country": "Bangladesh", "Status": "", "Zone Name": "", "Region": "Asia", "Parent Region": ""}, "geometry": {"type": "Point", "coordinates": [90.388, 23.762]}}, {"type": "Feature", "properties": {"Provider": "Cloudflare", "Service Name": "CDN", "URL": "https://www.cloudflare.com/en-gb/network/", "City": "Fukuoka", "Country": "Japan", "Status": "", "Zone Name": "", "Region": "Asia", "Parent Region": ""}, "geometry": {"type": "Point", "coordinates": [130.621, 33.625]}}, {"type": "Feature", "properties": {"Provider": "Cloudflare", "Service Name": "CDN", "URL": "https://www.cloudflare.com/en-gb/network/", "City": "Hanoi", "Country": "Viet Nam", "Status": "", "Zone Name": "", "Region": "Asia", "Parent Region": ""}, "geometry": {"type": "Point", "coordinates": [105.853, 21.027]}}, {"type": "Feature", "properties": {"Provider": "Cloudflare", "Service Name": "CDN", "URL": "https://www.cloudflare.com/en-gb/network/", "City": "Ho Chi Minh City", "Country": "Viet Nam", "Status": "", "Zone Name": "", "Region": "Asia", "Parent Region": ""}, "geometry": {"type": "Point", "coordinates": [106.701, 10.775]}}, {"type": "Feature", "properties": {"Provider": "Cloudflare", "Service Name": "CDN", "URL": "https://www.cloudflare.com/en-gb/network/", "City": "Hong Kong", "Country": "", "Status": "", "Zone Name": "", "Region": "Asia", "Parent Region": ""}, "geometry": {"type": "Point", "coordinates": [114.163, 22.276]}}, {"type": "Feature", "properties": {"Provider": "Cloudflare", "Service Name": "CDN", "URL": "https://www.cloudflare.com/en-gb/network/", "City": "Hyderabad", "Country": "India", "Status": "", "Zone Name": "", "Region": "Asia", "Parent Region": ""}, "geometry": {"type": "Point", "coordinates": [78.476, 17.364]}}, {"type": "Feature", "properties": {"Provider": "Cloudflare", "Service Name": "CDN", "URL": "https://www.cloudflare.com/en-gb/network/", "City": "Islamabad", "Country": "Pakistan", "Status": "", "Zone Name": "", "Region": "Asia", "Parent Region": ""}, "geometry": {"type": "Point", "coordinates": [73.068, 33.691]}}, {"type": "Feature", "properties": {"Provider": "Cloudflare", "Service Name": "CDN", "URL": "https://www.cloudflare.com/en-gb/network/", "City": "Jakarta", "Country": "Indonesia", "Status": "", "Zone Name": "", "Region": "Asia", "Parent Region": ""}, "geometry": {"type": "Point", "coordinates": [106.825, -6.176]}}, {"type": "Feature", "properties": {"Provider": "Cloudflare", "Service Name": "CDN", "URL": "https://www.cloudflare.com/en-gb/network/", "City": "Jashore", "Country": "Bangladesh", "Status": "", "Zone Name": "", "Region": "Asia", "Parent Region": ""}, "geometry": {"type": "Point", "coordinates": [89.212, 23.167]}}, {"type": "Feature", "properties": {"Provider": "Cloudflare", "Service Name": "CDN", "URL": "https://www.cloudflare.com/en-gb/network/", "City": "Johor Bahru", "Country": "Malaysia", "Status": "", "Zone Name": "", "Region": "Asia", "Parent Region": ""}, "geometry": {"type": "Point", "coordinates": [103.748, 1.5]}}, {"type": "Feature", "properties": {"Provider": "Cloudflare", "Service Name": "CDN", "URL": "https://www.cloudflare.com/en-gb/network/", "City": "Kanpur", "Country": "India", "Status": "", "Zone Name": "", "Region": "Asia", "Parent Region": ""}, "geometry": {"type": "Point", "coordinates": [80.32, 26.461]}}, {"type": "Feature", "properties": {"Provider": "Cloudflare", "Service Name": "CDN", "URL": "https://www.cloudflare.com/en-gb/network/", "City": "Karachi", "Country": "Pakistan", "Status": "", "Zone Name": "", "Region": "Asia", "Parent Region": ""}, "geometry": {"type": "Point", "coordinates": [67.016, 24.858]}}, {"type": "Feature", "properties": {"Provider": "Cloudflare", "Service Name": "CDN", "URL": "https://www.cloudflare.com/en-gb/network/", "City": "Kathmandu", "Country": "Nepal", "Status": "", "Zone Name": "", "Region": "Asia", "Parent Region": ""}, "geometry": {"type": "Point", "coordinates": [85.325, 27.706]}}, {"type": "Feature", "properties": {"Provider": "Cloudflare", "Service Name": "CDN", "URL": "https://www.cloudflare.com/en-gb/network/", "City": "Kolkata", "Country": "India", "Status": "", "Zone Name": "", "Region": "Asia", "Parent Region": ""}, "geometry": {"type": "Point", "coordinates": [88.364, 22.576]}}, {"type": "Feature", "properties": {"Provider": "Cloudflare", "Service Name": "CDN", "URL": "https://www.cloudflare.com/en-gb/network/", "City": "Kuala Lumpur", "Country": "Malaysia", "Status": "", "Zone Name": "", "Region": "Asia", "Parent Region": ""}, "geometry": {"type": "Point", "coordinates": [101.698, 3.154]}}, {"type": "Feature", "properties": {"Provider": "Cloudflare", "Service Name": "CDN", "URL": "https://www.cloudflare.com/en-gb/network/", "City": "Lahore", "Country": "Pakistan", "Status": "", "Zone Name": "", "Region": "Asia", "Parent Region": ""}, "geometry": {"type": "Point", "coordinates": [74.312, 31.566]}}, {"type": "Feature", "properties": {"Provider": "Cloudflare", "Service Name": "CDN", "URL": "https://www.cloudflare.com/en-gb/network/", "City": "Macau", "Country": "", "Status": "", "Zone Name": "", "Region": "Asia", "Parent Region": ""}, "geometry": {"type": "Point", "coordinates": [113.536, 22.193]}}, {"type": "Feature", "properties": {"Provider": "Cloudflare", "Service Name": "CDN", "URL": "https://www.cloudflare.com/en-gb/network/", "City": "Male", "Country": "Maldives", "Status": "", "Zone Name": "", "Region": "Asia", "Parent Region": ""}, "geometry": {"type": "Point", "coordinates": [73.509, 4.177]}}, {"type": "Feature", "properties": {"Provider": "Cloudflare", "Service Name": "CDN", "URL": "https://www.cloudflare.com/en-gb/network/", "City": "Mandalay", "Country": "Myanmar", "Status": "", "Zone Name": "", "Region": "Asia", "Parent Region": ""}, "geometry": {"type": "Point", "coordinates": [96.082, 21.977]}}, {"type": "Feature", "properties": {"Provider": "Cloudflare", "Service Name": "CDN", "URL": "https://www.cloudflare.com/en-gb/network/", "City": "Manila", "Country": "Philippines", "Status": "", "Zone Name": "", "Region": "Asia", "Parent Region": ""}, "geometry": {"type": "Point", "coordinates": [120.972, 14.579]}}, {"type": "Feature", "properties": {"Provider": "Cloudflare", "Service Name": "CDN", "URL": "https://www.cloudflare.com/en-gb/network/", "City": "Mumbai", "Country": "India", "Status": "", "Zone Name": "", "Region": "Asia", "Parent Region": ""}, "geometry": {"type": "Point", "coordinates": [72.887, 19.081]}}, {"type": "Feature", "properties": {"Provider": "Cloudflare", "Service Name": "CDN", "URL": "https://www.cloudflare.com/en-gb/network/", "City": "Nagpur", "Country": "India", "Status": "", "Zone Name": "", "Region": "Asia", "Parent Region": ""}, "geometry": {"type": "Point", "coordinates": [79.081, 21.154]}}, {"type": "Feature", "properties": {"Provider": "Cloudflare", "Service Name": "CDN", "URL": "https://www.cloudflare.com/en-gb/network/", "City": "Naha", "Country": "Japan", "Status": "", "Zone Name": "", "Region": "Asia", "Parent Region": ""}, "geometry": {"type": "Point", "coordinates": [127.676, 26.216]}}, {"type": "Feature", "properties": {"Provider": "Cloudflare", "Service Name": "CDN", "URL": "https://www.cloudflare.com/en-gb/network/", "City": "Nasiriyah", "Country": "Iraq", "Status": "", "Zone Name": "", "Region": "Asia", "Parent Region": ""}, "geometry": {"type": "Point", "coordinates": [46.259, 31.044]}}, {"type": "Feature", "properties": {"Provider": "Cloudflare", "Service Name": "CDN", "URL": "https://www.cloudflare.com/en-gb/network/", "City": "New Delhi", "Country": "India", "Status": "", "Zone Name": "", "Region": "Asia", "Parent Region": ""}, "geometry": {"type": "Point", "coordinates": [77.213, 28.613]}}, {"type": "Feature", "properties": {"Provider": "Cloudflare", "Service Name": "CDN", "URL": "https://www.cloudflare.com/en-gb/network/", "City": "Osaka", "Country": "Japan", "Status": "", "Zone Name": "", "Region": "Asia", "Parent Region": ""}, "geometry": {"type": "Point", "coordinates": [135.499, 34.665]}}, {"type": "Feature", "properties": {"Provider": "Cloudflare", "Service Name": "CDN", "URL": "https://www.cloudflare.com/en-gb/network/", "City": "Patna", "Country": "India", "Status": "", "Zone Name": "", "Region": "Asia", "Parent Region": ""}, "geometry": {"type": "Point", "coordinates": [85.122, 25.607]}}, {"type": "Feature", "properties": {"Provider": "Cloudflare", "Service Name": "CDN", "URL": "https://www.cloudflare.com/en-gb/network/", "City": "Phnom Penh", "Country": "Cambodia", "Status": "", "Zone Name": "", "Region": "Asia", "Parent Region": ""}, "geometry": {"type": "Point", "coordinates": [104.925, 11.564]}}, {"type": "Feature", "properties": {"Provider": "Cloudflare", "Service Name": "CDN", "URL": "https://www.cloudflare.com/en-gb/network/", "City": "Seoul", "Country": "Korea, Republic of", "Status": "", "Zone Name": "", "Region": "Asia", "Parent Region": ""}, "geometry": {"type": "Point", "coordinates": [126.995, 37.539]}}, {"type": "Feature", "properties": {"Provider": "Cloudflare", "Service Name": "CDN", "URL": "https://www.cloudflare.com/en-gb/network/", "City": "Singapore", "Country": "Singapore", "Status": "", "Zone Name": "", "Region": "Asia", "Parent Region": ""}, "geometry": {"type": "Point", "coordinates": [103.819, 1.353]}}, {"type": "Feature", "properties": {"Provider": "Cloudflare", "Service Name": "CDN", "URL": "https://www.cloudflare.com/en-gb/network/", "City": "Surat Thani", "Country": "Thailand", "Status": "", "Zone Name": "", "Region": "Asia", "Parent Region": ""}, "geometry": {"type": "Point", "coordinates": [98.827, 9.466]}}, {"type": "Feature", "properties": {"Provider": "Cloudflare", "Service Name": "CDN", "URL": "https://www.cloudflare.com/en-gb/network/", "City": "Taipei", "Country": "", "Status": "", "Zone Name": "", "Region": "Asia", "Parent Region": ""}, "geometry": {"type": "Point", "coordinates": [121.567, 25.035]}}, {"type": "Feature", "properties": {"Provider": "Cloudflare", "Service Name": "CDN", "URL": "https://www.cloudflare.com/en-gb/network/", "City": "Tashkent", "Country": "Uzbekistan", "Status": "", "Zone Name": "", "Region": "Asia", "Parent Region": ""}, "geometry": {"type": "Point", "coordinates": [69.281, 41.31]}}, {"type": "Feature", "properties": {"Provider": "Cloudflare", "Service Name": "CDN", "URL": "https://www.cloudflare.com/en-gb/network/", "City": "Tbilisi", "Country": "Georgia", "Status": "", "Zone Name": "", "Region": "Asia", "Parent Region": ""}, "geometry": {"type": "Point", "coordinates": [44.798, 41.695]}}, {"type": "Feature", "properties": {"Provider": "Cloudflare", "Service Name": "CDN", "URL": "https://www.cloudflare.com/en-gb/network/", "City": "Thimphu", "Country": "Bhutan", "Status": "", "Zone Name": "", "Region": "Asia", "Parent Region": ""}, "geometry": {"type": "Point", "coordinates": [89.634, 27.472]}}, {"type": "Feature", "properties": {"Provider": "Cloudflare", "Service Name": "CDN", "URL": "https://www.cloudflare.com/en-gb/network/", "City": "Tokyo", "Country": "Japan", "Status": "", "Zone Name": "", "Region": "Asia", "Parent Region": ""}, "geometry": {"type": "Point", "coordinates": [139.774, 35.68]}}, {"type": "Feature", "properties": {"Provider": "Cloudflare", "Service Name": "CDN", "URL": "https://www.cloudflare.com/en-gb/network/", "City": "Ulaanbaatar", "Country": "Mongolia", "Status": "", "Zone Name": "", "Region": "Asia", "Parent Region": ""}, "geometry": {"type": "Point", "coordinates": [106.922, 47.915]}}, {"type": "Feature", "properties": {"Provider": "Cloudflare", "Service Name": "CDN", "URL": "https://www.cloudflare.com/en-gb/network/", "City": "Vientiane", "Country": "Lao People's Democratic Republic", "Status": "", "Zone Name": "", "Region": "Asia", "Parent Region": ""}, "geometry": {"type": "Point", "coordinates": [102.615, 17.963]}}, {"type": "Feature", "properties": {"Provider": "Cloudflare", "Service Name": "CDN", "URL": "https://www.cloudflare.com/en-gb/network/", "City": "Yangon", "Country": "Myanmar", "Status": "", "Zone Name": "", "Region": "Asia", "Parent Region": ""}, "geometry": {"type": "Point", "coordinates": [96.158, 16.792]}}, {"type": "Feature", "properties": {"Provider": "Cloudflare", "Service Name": "CDN", "URL": "https://www.cloudflare.com/en-gb/network/", "City": "Yerevan", "Country": "Armenia", "Status": "", "Zone Name": "", "Region": "Asia", "Parent Region": ""}, "geometry": {"type": "Point", "coordinates": [44.51, 40.18]}}, {"type": "Feature", "properties": {"Provider": "Cloudflare", "Service Name": "CDN", "URL": "https://www.cloudflare.com/en-gb/network/", "City": "Yogyakarta", "Country": "Indonesia", "Status": "", "Zone Name": "", "Region": "Asia", "Parent Region": ""}, "geometry": {"type": "Point", "coordinates": [110.369, -7.978]}}, {"type": "Feature", "properties": {"Provider": "Cloudflare", "Service Name": "CDN", "URL": "https://www.cloudflare.com/en-gb/network/", "City": "Anqing", "Country": "China", "Status": "", "Zone Name": "", "Region": "Mainland China", "Parent Region": ""}, "geometry": {"type": "Point", "coordinates": [116.63, 30.663]}}, {"type": "Feature", "properties": {"Provider": "Cloudflare", "Service Name": "CDN", "URL": "https://www.cloudflare.com/en-gb/network/", "City": "Baoji", "Country": "China", "Status": "", "Zone Name": "", "Region": "Mainland China", "Parent Region": ""}, "geometry": {"type": "Point", "coordinates": [107.231, 34.361]}}, {"type": "Feature", "properties": {"Provider": "Cloudflare", "Service Name": "CDN", "URL": "https://www.cloudflare.com/en-gb/network/", "City": "Beijing", "Country": "China", "Status": "", "Zone Name": "", "Region": "Mainland China", "Parent Region": ""}, "geometry": {"type": "Point", "coordinates": [116.391, 39.902]}}, {"type": "Feature", "properties": {"Provider": "Cloudflare", "Service Name": "CDN", "URL": "https://www.cloudflare.com/en-gb/network/", "City": "Changde", "Country": "China", "Status": "", "Zone Name": "", "Region": "Mainland China", "Parent Region": ""}, "geometry": {"type": "Point", "coordinates": [111.691, 29.037]}}, {"type": "Feature", "properties": {"Provider": "Cloudflare", "Service Name": "CDN", "URL": "https://www.cloudflare.com/en-gb/network/", "City": "Changzhou", "Country": "China", "Status": "", "Zone Name": "", "Region": "Mainland China", "Parent Region": ""}, "geometry": {"type": "Point", "coordinates": [119.968, 31.809]}}, {"type": "Feature", "properties": {"Provider": "Cloudflare", "Service Name": "CDN", "URL": "https://www.cloudflare.com/en-gb/network/", "City": "Chengdu", "Country": "China", "Status": "", "Zone Name": "", "Region": "Mainland China", "Parent Region": ""}, "geometry": {"type": "Point", "coordinates": [104.062, 30.662]}}, {"type": "Feature", "properties": {"Provider": "Cloudflare", "Service Name": "CDN", "URL": "https://www.cloudflare.com/en-gb/network/", "City": "Chengmai", "Country": "China", "Status": "", "Zone Name": "", "Region": "Mainland China", "Parent Region": ""}, "geometry": {"type": "Point", "coordinates": [110.0, 19.74]}}, {"type": "Feature", "properties": {"Provider": "Cloudflare", "Service Name": "CDN", "URL": "https://www.cloudflare.com/en-gb/network/", "City": "Dalian", "Country": "China", "Status": "", "Zone Name": "", "Region": "Mainland China", "Parent Region": ""}, "geometry": {"type": "Point", "coordinates": [121.628, 38.915]}}, {"type": "Feature", "properties": {"Provider": "Cloudflare", "Service Name": "CDN", "URL": "https://www.cloudflare.com/en-gb/network/", "City": "Foshan", "Country": "China", "Status": "", "Zone Name": "", "Region": "Mainland China", "Parent Region": ""}, "geometry": {"type": "Point", "coordinates": [113.116, 23.023]}}, {"type": "Feature", "properties": {"Provider": "Cloudflare", "Service Name": "CDN", "URL": "https://www.cloudflare.com/en-gb/network/", "City": "Fuzhou", "Country": "China", "Status": "", "Zone Name": "", "Region": "Mainland China", "Parent Region": ""}, "geometry": {"type": "Point", "coordinates": [116.35, 27.953]}}, {"type": "Feature", "properties": {"Provider": "Cloudflare", "Service Name": "CDN", "URL": "https://www.cloudflare.com/en-gb/network/", "City": "Guangzhou", "Country": "China", "Status": "", "Zone Name": "", "Region": "Mainland China", "Parent Region": ""}, "geometry": {"type": "Point", "coordinates": [113.257, 23.132]}}, {"type": "Feature", "properties": {"Provider": "Cloudflare", "Service Name": "CDN", "URL": "https://www.cloudflare.com/en-gb/network/", "City": "Guiyang", "Country": "China", "Status": "", "Zone Name": "", "Region": "Mainland China", "Parent Region": ""}, "geometry": {"type": "Point", "coordinates": [106.627, 26.652]}}, {"type": "Feature", "properties": {"Provider": "Cloudflare", "Service Name": "CDN", "URL": "https://www.cloudflare.com/en-gb/network/", "City": "Haikou", "Country": "China", "Status": "", "Zone Name": "", "Region": "Mainland China", "Parent Region": ""}, "geometry": {"type": "Point", "coordinates": [110.194, 20.046]}}, {"type": "Feature", "properties": {"Provider": "Cloudflare", "Service Name": "CDN", "URL": "https://www.cloudflare.com/en-gb/network/", "City": "Hohhot", "Country": "China", "Status": "", "Zone Name": "", "Region": "Mainland China", "Parent Region": ""}, "geometry": {"type": "Point", "coordinates": [111.673, 40.836]}}, {"type": "Feature", "properties": {"Provider": "Cloudflare", "Service Name": "CDN", "URL": "https://www.cloudflare.com/en-gb/network/", "City": "Huainan", "Country": "China", "Status": "", "Zone Name": "", "Region": "Mainland China", "Parent Region": ""}, "geometry": {"type": "Point", "coordinates": [117.01, 32.587]}}, {"type": "Feature", "properties": {"Provider": "Cloudflare", "Service Name": "CDN", "URL": "https://www.cloudflare.com/en-gb/network/", "City": "Jinan", "Country": "China", "Status": "", "Zone Name": "", "Region": "Mainland China", "Parent Region": ""}, "geometry": {"type": "Point", "coordinates": [117.118, 36.652]}}, {"type": "Feature", "properties": {"Provider": "Cloudflare", "Service Name": "CDN", "URL": "https://www.cloudflare.com/en-gb/network/", "City": "Jinhua", "Country": "China", "Status": "", "Zone Name": "", "Region": "Mainland China", "Parent Region": ""}, "geometry": {"type": "Point", "coordinates": [119.649, 29.108]}}, {"type": "Feature", "properties": {"Provider": "Cloudflare", "Service Name": "CDN", "URL": "https://www.cloudflare.com/en-gb/network/", "City": "Langfang", "Country": "China", "Status": "", "Zone Name": "", "Region": "Mainland China", "Parent Region": ""}, "geometry": {"type": "Point", "coordinates": [116.682, 39.533]}}, {"type": "Feature", "properties": {"Provider": "Cloudflare", "Service Name": "CDN", "URL": "https://www.cloudflare.com/en-gb/network/", "City": "Lanzhou", "Country": "China", "Status": "", "Zone Name": "", "Region": "Mainland China", "Parent Region": ""}, "geometry": {"type": "Point", "coordinates": [103.836, 36.066]}}, {"type": "Feature", "properties": {"Provider": "Cloudflare", "Service Name": "CDN", "URL": "https://www.cloudflare.com/en-gb/network/", "City": "Maoming", "Country": "China", "Status": "", "Zone Name": "", "Region": "Mainland China", "Parent Region": ""}, "geometry": {"type": "Point", "coordinates": [110.919, 21.662]}}, {"type": "Feature", "properties": {"Provider": "Cloudflare", "Service Name": "CDN", "URL": "https://www.cloudflare.com/en-gb/network/", "City": "Nanchang", "Country": "China", "Status": "", "Zone Name": "", "Region": "Mainland China", "Parent Region": ""}, "geometry": {"type": "Point", "coordinates": [115.852, 28.687]}}, {"type": "Feature", "properties": {"Provider": "Cloudflare", "Service Name": "CDN", "URL": "https://www.cloudflare.com/en-gb/network/", "City": "Qingdao", "Country": "China", "Status": "", "Zone Name": "", "Region": "Mainland China", "Parent Region": ""}, "geometry": {"type": "Point", "coordinates": [120.382, 36.063]}}, {"type": "Feature", "properties": {"Provider": "Cloudflare", "Service Name": "CDN", "URL": "https://www.cloudflare.com/en-gb/network/", "City": "Qinhuangdao", "Country": "China", "Status": "", "Zone Name": "", "Region": "Mainland China", "Parent Region": ""}, "geometry": {"type": "Point", "coordinates": [119.594, 39.939]}}, {"type": "Feature", "properties": {"Provider": "Cloudflare", "Service Name": "CDN", "URL": "https://www.cloudflare.com/en-gb/network/", "City": "Quanzhou", "Country": "China", "Status": "", "Zone Name": "", "Region": "Mainland China", "Parent Region": ""}, "geometry": {"type": "Point", "coordinates": [118.676, 24.876]}}, {"type": "Feature", "properties": {"Provider": "Cloudflare", "Service Name": "CDN", "URL": "https://www.cloudflare.com/en-gb/network/", "City": "Quzhou", "Country": "China", "Status": "", "Zone Name": "", "Region": "Mainland China", "Parent Region": ""}, "geometry": {"type": "Point", "coordinates": [114.955, 36.769]}}, {"type": "Feature", "properties": {"Provider": "Cloudflare", "Service Name": "CDN", "URL": "https://www.cloudflare.com/en-gb/network/", "City": "Shanghai", "Country": "China", "Status": "", "Zone Name": "", "Region": "Mainland China", "Parent Region": ""}, "geometry": {"type": "Point", "coordinates": [121.465, 31.236]}}, {"type": "Feature", "properties": {"Provider": "Cloudflare", "Service Name": "CDN", "URL": "https://www.cloudflare.com/en-gb/network/", "City": "Shenyang", "Country": "China", "Status": "", "Zone Name": "", "Region": "Mainland China", "Parent Region": ""}, "geometry": {"type": "Point", "coordinates": [123.427, 41.802]}}, {"type": "Feature", "properties": {"Provider": "Cloudflare", "Service Name": "CDN", "URL": "https://www.cloudflare.com/en-gb/network/", "City": "Shiyan", "Country": "China", "Status": "", "Zone Name": "", "Region": "Mainland China", "Parent Region": ""}, "geometry": {"type": "Point", "coordinates": [110.79, 32.632]}}, {"type": "Feature", "properties": {"Provider": "Cloudflare", "Service Name": "CDN", "URL": "https://www.cloudflare.com/en-gb/network/", "City": "Suqian", "Country": "China", "Status": "", "Zone Name": "", "Region": "Mainland China", "Parent Region": ""}, "geometry": {"type": "Point", "coordinates": [118.268, 33.969]}}, {"type": "Feature", "properties": {"Provider": "Cloudflare", "Service Name": "CDN", "URL": "https://www.cloudflare.com/en-gb/network/", "City": "Taizhou", "Country": "China", "Status": "", "Zone Name": "", "Region": "Mainland China", "Parent Region": ""}, "geometry": {"type": "Point", "coordinates": [121.416, 28.661]}}, {"type": "Feature", "properties": {"Provider": "Cloudflare", "Service Name": "CDN", "URL": "https://www.cloudflare.com/en-gb/network/", "City": "Wuxi", "Country": "China", "Status": "", "Zone Name": "", "Region": "Mainland China", "Parent Region": ""}, "geometry": {"type": "Point", "coordinates": [120.299, 31.578]}}, {"type": "Feature", "properties": {"Provider": "Cloudflare", "Service Name": "CDN", "URL": "https://www.cloudflare.com/en-gb/network/", "City": "Xianyang", "Country": "China", "Status": "", "Zone Name": "", "Region": "Mainland China", "Parent Region": ""}, "geometry": {"type": "Point", "coordinates": [108.7, 34.329]}}, {"type": "Feature", "properties": {"Provider": "Cloudflare", "Service Name": "CDN", "URL": "https://www.cloudflare.com/en-gb/network/", "City": "Xining", "Country": "China", "Status": "", "Zone Name": "", "Region": "Mainland China", "Parent Region": ""}, "geometry": {"type": "Point", "coordinates": [101.778, 36.616]}}, {"type": "Feature", "properties": {"Provider": "Cloudflare", "Service Name": "CDN", "URL": "https://www.cloudflare.com/en-gb/network/", "City": "Xinyu", "Country": "China", "Status": "", "Zone Name": "", "Region": "Mainland China", "Parent Region": ""}, "geometry": {"type": "Point", "coordinates": [114.889, 27.857]}}, {"type": "Feature", "properties": {"Provider": "Cloudflare", "Service Name": "CDN", "URL": "https://www.cloudflare.com/en-gb/network/", "City": "Yichang", "Country": "China", "Status": "", "Zone Name": "", "Region": "Mainland China", "Parent Region": ""}, "geometry": {"type": "Point", "coordinates": [111.285, 30.692]}}, {"type": "Feature", "properties": {"Provider": "Cloudflare", "Service Name": "CDN", "URL": "https://www.cloudflare.com/en-gb/network/", "City": "Yiyang", "Country": "China", "Status": "", "Zone Name": "", "Region": "Mainland China", "Parent Region": ""}, "geometry": {"type": "Point", "coordinates": [112.346, 28.555]}}, {"type": "Feature", "properties": {"Provider": "Cloudflare", "Service Name": "CDN", "URL": "https://www.cloudflare.com/en-gb/network/", "City": "Zhengzhou", "Country": "China", "Status": "", "Zone Name": "", "Region": "Mainland China", "Parent Region": ""}, "geometry": {"type": "Point", "coordinates": [113.622, 34.752]}}, {"type": "Feature", "properties": {"Provider": "Cloudflare", "Service Name": "CDN", "URL": "https://www.cloudflare.com/en-gb/network/", "City": "Adelaide", "Country": "Australia", "Status": "", "Zone Name": "", "Region": "Oceania", "Parent Region": ""}, "geometry": {"type": "Point", "coordinates": [138.597, -34.93]}}, {"type": "Feature", "properties": {"Provider": "Cloudflare", "Service Name": "CDN", "URL": "https://www.cloudflare.com/en-gb/network/", "City": "Auckland", "Country": "New Zealand", "Status": "", "Zone Name": "", "Region": "Oceania", "Parent Region": ""}, "geometry": {"type": "Point", "coordinates": [174.762, -36.851]}}, {"type": "Feature", "properties": {"Provider": "Cloudflare", "Service Name": "CDN", "URL": "https://www.cloudflare.com/en-gb/network/", "City": "Brisbane", "Country": "Australia", "Status": "", "Zone Name": "", "Region": "Oceania", "Parent Region": ""}, "geometry": {"type": "Point", "coordinates": [153.021, -27.469]}}, {"type": "Feature", "properties": {"Provider": "Cloudflare", "Service Name": "CDN", "URL": "https://www.cloudflare.com/en-gb/network/", "City": "Canberra", "Country": "Australia", "Status": "", "Zone Name": "", "Region": "Oceania", "Parent Region": ""}, "geometry": {"type": "Point", "coordinates": [149.098, -35.299]}}, {"type": "Feature", "properties": {"Provider": "Cloudflare", "Service Name": "CDN", "URL": "https://www.cloudflare.com/en-gb/network/", "City": "Christchurch", "Country": "New Zealand", "Status": "", "Zone Name": "", "Region": "Oceania", "Parent Region": ""}, "geometry": {"type": "Point", "coordinates": [172.64, -43.533]}}, {"type": "Feature", "properties": {"Provider": "Cloudflare", "Service Name": "CDN", "URL": "https://www.cloudflare.com/en-gb/network/", "City": "Guam", "Country": "Guam", "Status": "", "Zone Name": "", "Region": "Oceania", "Parent Region": ""}, "geometry": {"type": "Point", "coordinates": [144.755, 13.45]}}, {"type": "Feature", "properties": {"Provider": "Cloudflare", "Service Name": "CDN", "URL": "https://www.cloudflare.com/en-gb/network/", "City": "Hobart", "Country": "Australia", "Status": "", "Zone Name": "", "Region": "Oceania", "Parent Region": ""}, "geometry": {"type": "Point", "coordinates": [147.329, -42.886]}}, {"type": "Feature", "properties": {"Provider": "Cloudflare", "Service Name": "CDN", "URL": "https://www.cloudflare.com/en-gb/network/", "City": "Melbourne", "Country": "Australia", "Status": "", "Zone Name": "", "Region": "Oceania", "Parent Region": ""}, "geometry": {"type": "Point", "coordinates": [144.964, -37.815]}}, {"type": "Feature", "properties": {"Provider": "Cloudflare", "Service Name": "CDN", "URL": "https://www.cloudflare.com/en-gb/network/", "City": "Noumea", "Country": "New Caledonia", "Status": "", "Zone Name": "", "Region": "Oceania", "Parent Region": ""}, "geometry": {"type": "Point", "coordinates": [166.445, -22.274]}}, {"type": "Feature", "properties": {"Provider": "Cloudflare", "Service Name": "CDN", "URL": "https://www.cloudflare.com/en-gb/network/", "City": "Perth", "Country": "Australia", "Status": "", "Zone Name": "", "Region": "Oceania", "Parent Region": ""}, "geometry": {"type": "Point", "coordinates": [115.862, -31.953]}}, {"type": "Feature", "properties": {"Provider": "Cloudflare", "Service Name": "CDN", "URL": "https://www.cloudflare.com/en-gb/network/", "City": "Sydney", "Country": "Australia", "Status": "", "Zone Name": "", "Region": "Oceania", "Parent Region": ""}, "geometry": {"type": "Point", "coordinates": [151.206, -33.869]}}]}