{"type": "FeatureCollection", "features": [{"type": "Feature", "properties": {"Provider": "Google", "Service Name": "datacenters", "URL": "https://peering.google.com/#/infrastructure", "City": "Moncks Corner", "Country": "United States", "Status": "Active", "IP Version": "", "Hosting Provider": "", "C Number": "", "Airport Code": "", "Airport Code Number": 0, "IPS Name": "", "CDN Type": "", "Zone Name": "", "Region": "", "Parent Region": ""}, "geometry": {"type": "Point", "coordinates": [-80.01, 33.195]}}, {"type": "Feature", "properties": {"Provider": "Google", "Service Name": "datacenters", "URL": "https://peering.google.com/#/infrastructure", "City": "Zhanghua City", "Country": "Taiwan, Province of China", "Status": "Active", "IP Version": "", "Hosting Provider": "", "C Number": "", "Airport Code": "", "Airport Code Number": 0, "IPS Name": "", "CDN Type": "", "Zone Name": "", "Region": "", "Parent Region": ""}, "geometry": {"type": "Point", "coordinates": [120.545, 24.076]}}, {"type": "Feature", "properties": {"Provider": "Google", "Service Name": "datacenters", "URL": "https://peering.google.com/#/infrastructure", "City": "Council Bluffs", "Country": "United States", "Status": "Active", "IP Version": "", "Hosting Provider": "", "C Number": "", "Airport Code": "", "Airport Code Number": 0, "IPS Name": "", "CDN Type": "", "Zone Name": "", "Region": "", "Parent Region": ""}, "geometry": {"type": "Point", "coordinates": [-95.854, 41.259]}}, {"type": "Feature", "properties": {"Provider": "Google", "Service Name": "datacenters", "URL": "https://peering.google.com/#/infrastructure", "City": "Effingham County", "Country": "United States", "Status": "Active", "IP Version": "", "Hosting Provider": "", "C Number": "", "Airport Code": "", "Airport Code Number": 0, "IPS Name": "", "CDN Type": "", "Zone Name": "", "Region": "", "Parent Region": ""}, "geometry": {"type": "Point", "coordinates": [-88.545, 39.059]}}, {"type": "Feature", "properties": {"Provider": "Google", "Service Name": "datacenters", "URL": "https://peering.google.com/#/infrastructure", "City": "Dublin", "Country": "Ireland", "Status": "Active", "IP Version": "", "Hosting Provider": "", "C Number": "", "Airport Code": "", "Airport Code Number": 0, "IPS Name": "", "CDN Type": "", "Zone Name": "", "Region": "", "Parent Region": ""}, "geometry": {"type": "Point", "coordinates": [-6.26, 53.35]}}, {"type": "Feature", "properties": {"Provider": "Google", "Service Name": "datacenters", "URL": "https://peering.google.com/#/infrastructure", "City": "Eemshaven", "Country": "Netherlands", "Status": "Active", "IP Version": "", "Hosting Provider": "", "C Number": "", "Airport Code": "", "Airport Code Number": 0, "IPS Name": "", "CDN Type": "", "Zone Name": "", "Region": "", "Parent Region": ""}, "geometry": {"type": "Point", "coordinates": [6.85, 53.448]}}, {"type": "Feature", "properties": {"Provider": "Google", "Service Name": "datacenters", "URL": "https://peering.google.com/#/infrastructure", "City": "Fredericia", "Country": "Denmark", "Status": "Active", "IP Version": "", "Hosting Provider": "", "C Number": "", "Airport Code": "", "Airport Code Number": 0, "IPS Name": "", "CDN Type": "", "Zone Name": "", "Region": "", "Parent Region": ""}, "geometry": {"type": "Point", "coordinates": [9.756, 55.565]}}, {"type": "Feature", "properties": {"Provider": "Google", "Service Name": "datacenters", "URL": "https://peering.google.com/#/infrastructure", "City": "Hamina", "Country": "Finland", "Status": "Active", "IP Version": "", "Hosting Provider": "", "C Number": "", "Airport Code": "", "Airport Code Number": 0, "IPS Name": "", "CDN Type": "", "Zone Name": "", "Region": "", "Parent Region": ""}, "geometry": {"type": "Point", "coordinates": [27.188, 60.569]}}, {"type": "Feature", "properties": {"Provider": "Google", "Service Name": "datacenters", "URL": "https://peering.google.com/#/infrastructure", "City": "Henderson", "Country": "United States", "Status": "Active", "IP Version": "", "Hosting Provider": "", "C Number": "", "Airport Code": "", "Airport Code Number": 0, "IPS Name": "", "CDN Type": "", "Zone Name": "", "Region": "", "Parent Region": ""}, "geometry": {"type": "Point", "coordinates": [-114.983, 36.03]}}, {"type": "Feature", "properties": {"Provider": "Google", "Service Name": "datacenters", "URL": "https://peering.google.com/#/infrastructure", "City": "Jackson County", "Country": "United States", "Status": "Active", "IP Version": "", "Hosting Provider": "", "C Number": "", "Airport Code": "", "Airport Code Number": 0, "IPS Name": "", "CDN Type": "", "Zone Name": "", "Region": "", "Parent Region": ""}, "geometry": {"type": "Point", "coordinates": [-85.987, 34.769]}}, {"type": "Feature", "properties": {"Provider": "Google", "Service Name": "datacenters", "URL": "https://peering.google.com/#/infrastructure", "City": "Kinston", "Country": "United States", "Status": "Active", "IP Version": "", "Hosting Provider": "", "C Number": "", "Airport Code": "", "Airport Code Number": 0, "IPS Name": "", "CDN Type": "", "Zone Name": "", "Region": "", "Parent Region": ""}, "geometry": {"type": "Point", "coordinates": [-77.648, 35.259]}}, {"type": "Feature", "properties": {"Provider": "Google", "Service Name": "datacenters", "URL": "https://peering.google.com/#/infrastructure", "City": "Loudoun County", "Country": "United States", "Status": "Active", "IP Version": "", "Hosting Provider": "", "C Number": "", "Airport Code": "", "Airport Code Number": 0, "IPS Name": "", "CDN Type": "", "Zone Name": "", "Region": "", "Parent Region": ""}, "geometry": {"type": "Point", "coordinates": [-77.671, 39.098]}}, {"type": "Feature", "properties": {"Provider": "Google", "Service Name": "datacenters", "URL": "https://peering.google.com/#/infrastructure", "City": "Mayes County", "Country": "United States", "Status": "Active", "IP Version": "", "Hosting Provider": "", "C Number": "", "Airport Code": "", "Airport Code Number": 0, "IPS Name": "", "CDN Type": "", "Zone Name": "", "Region": "", "Parent Region": ""}, "geometry": {"type": "Point", "coordinates": [-95.236, 36.305]}}, {"type": "Feature", "properties": {"Provider": "Google", "Service Name": "datacenters", "URL": "https://peering.google.com/#/infrastructure", "City": "Middenmeer", "Country": "Netherlands", "Status": "Active", "IP Version": "", "Hosting Provider": "", "C Number": "", "Airport Code": "", "Airport Code Number": 0, "IPS Name": "", "CDN Type": "", "Zone Name": "", "Region": "", "Parent Region": ""}, "geometry": {"type": "Point", "coordinates": [4.995, 52.811]}}, {"type": "Feature", "properties": {"Provider": "Google", "Service Name": "datacenters", "URL": "https://peering.google.com/#/infrastructure", "City": "Midlothian", "Country": "United States", "Status": "Active", "IP Version": "", "Hosting Provider": "", "C Number": "", "Airport Code": "", "Airport Code Number": 0, "IPS Name": "", "CDN Type": "", "Zone Name": "", "Region": "", "Parent Region": ""}, "geometry": {"type": "Point", "coordinates": [-96.994, 32.482]}}, {"type": "Feature", "properties": {"Provider": "Google", "Service Name": "datacenters", "URL": "https://peering.google.com/#/infrastructure", "City": "Montgomery County", "Country": "United States", "Status": "Active", "IP Version": "", "Hosting Provider": "", "C Number": "", "Airport Code": "", "Airport Code Number": 0, "IPS Name": "", "CDN Type": "", "Zone Name": "", "Region": "", "Parent Region": ""}, "geometry": {"type": "Point", "coordinates": [-87.379, 36.48]}}, {"type": "Feature", "properties": {"Provider": "Google", "Service Name": "datacenters", "URL": "https://peering.google.com/#/infrastructure", "City": "New Albany", "Country": "United States", "Status": "Active", "IP Version": "", "Hosting Provider": "", "C Number": "", "Airport Code": "", "Airport Code Number": 0, "IPS Name": "", "CDN Type": "", "Zone Name": "", "Region": "", "Parent Region": ""}, "geometry": {"type": "Point", "coordinates": [-82.809, 40.081]}}, {"type": "Feature", "properties": {"Provider": "Google", "Service Name": "datacenters", "URL": "https://peering.google.com/#/infrastructure", "City": "Papillion", "Country": "United States", "Status": "Active", "IP Version": "", "Hosting Provider": "", "C Number": "", "Airport Code": "", "Airport Code Number": 0, "IPS Name": "", "CDN Type": "", "Zone Name": "", "Region": "", "Parent Region": ""}, "geometry": {"type": "Point", "coordinates": [-96.042, 41.154]}}, {"type": "Feature", "properties": {"Provider": "Google", "Service Name": "datacenters", "URL": "https://peering.google.com/#/infrastructure", "City": "Provincia de Santiago", "Country": "Chile", "Status": "Active", "IP Version": "", "Hosting Provider": "", "C Number": "", "Airport Code": "", "Airport Code Number": 0, "IPS Name": "", "CDN Type": "", "Zone Name": "", "Region": "", "Parent Region": ""}, "geometry": {"type": "Point", "coordinates": [-70.713, -33.359]}}, {"type": "Feature", "properties": {"Provider": "Google", "Service Name": "datacenters", "URL": "https://peering.google.com/#/infrastructure", "City": "Singapore", "Country": "Singapore", "Status": "Active", "IP Version": "", "Hosting Provider": "", "C Number": "", "Airport Code": "", "Airport Code Number": 0, "IPS Name": "", "CDN Type": "", "Zone Name": "", "Region": "", "Parent Region": ""}, "geometry": {"type": "Point", "coordinates": [103.819, 1.357]}}, {"type": "Feature", "properties": {"Provider": "Google", "Service Name": "datacenters", "URL": "https://peering.google.com/#/infrastructure", "City": "Saint-Ghislain", "Country": "Belgium", "Status": "Active", "IP Version": "", "Hosting Provider": "", "C Number": "", "Airport Code": "", "Airport Code Number": 0, "IPS Name": "", "CDN Type": "", "Zone Name": "", "Region": "", "Parent Region": ""}, "geometry": {"type": "Point", "coordinates": [3.82, 50.448]}}, {"type": "Feature", "properties": {"Provider": "Google", "Service Name": "datacenters", "URL": "https://peering.google.com/#/infrastructure", "City": "Storey County", "Country": "United States", "Status": "Active", "IP Version": "", "Hosting Provider": "", "C Number": "", "Airport Code": "", "Airport Code Number": 0, "IPS Name": "", "CDN Type": "", "Zone Name": "", "Region": "", "Parent Region": ""}, "geometry": {"type": "Point", "coordinates": [-119.516, 39.457]}}, {"type": "Feature", "properties": {"Provider": "Google", "Service Name": "datacenters", "URL": "https://peering.google.com/#/infrastructure", "City": "The Dalles", "Country": "United States", "Status": "Active", "IP Version": "", "Hosting Provider": "", "C Number": "", "Airport Code": "", "Airport Code Number": 0, "IPS Name": "", "CDN Type": "", "Zone Name": "", "Region": "", "Parent Region": ""}, "geometry": {"type": "Point", "coordinates": [-121.184, 45.602]}}, {"type": "Feature", "properties": {"Provider": "Google", "Service Name": "datacenters", "URL": "https://peering.google.com/#/infrastructure", "City": "Inzai", "Country": "Japan", "Status": "Active", "IP Version": "", "Hosting Provider": "", "C Number": "", "Airport Code": "", "Airport Code Number": 0, "IPS Name": "", "CDN Type": "", "Zone Name": "", "Region": "", "Parent Region": ""}, "geometry": {"type": "Point", "coordinates": [140.134, 35.815]}}, {"type": "Feature", "properties": {"Provider": "Google", "Service Name": "pops", "URL": "https://peering.google.com/#/infrastructure", "City": "Melbourne", "Country": "Australia", "Status": "Active", "IP Version": "", "Hosting Provider": "", "C Number": "", "Airport Code": "", "Airport Code Number": 0, "IPS Name": "", "CDN Type": "", "Zone Name": "", "Region": "", "Parent Region": ""}, "geometry": {"type": "Point", "coordinates": [144.839, -37.669]}}, {"type": "Feature", "properties": {"Provider": "Google", "Service Name": "pops", "URL": "https://peering.google.com/#/infrastructure", "City": "Phoenix", "Country": "United States", "Status": "Active", "IP Version": "", "Hosting Provider": "", "C Number": "", "Airport Code": "", "Airport Code Number": 0, "IPS Name": "", "CDN Type": "", "Zone Name": "", "Region": "", "Parent Region": ""}, "geometry": {"type": "Point", "coordinates": [-112.035, 33.434]}}, {"type": "Feature", "properties": {"Provider": "Google", "Service Name": "pops", "URL": "https://peering.google.com/#/infrastructure", "City": "Laval (administrative region)", "Country": "Canada", "Status": "Active", "IP Version": "", "Hosting Provider": "", "C Number": "", "Airport Code": "", "Airport Code Number": 0, "IPS Name": "", "CDN Type": "", "Zone Name": "", "Region": "", "Parent Region": ""}, "geometry": {"type": "Point", "coordinates": [-73.73, 45.558]}}, {"type": "Feature", "properties": {"Provider": "Google", "Service Name": "pops", "URL": "https://peering.google.com/#/infrastructure", "City": "Amsterdam", "Country": "Netherlands", "Status": "Active", "IP Version": "", "Hosting Provider": "", "C Number": "", "Airport Code": "", "Airport Code Number": 0, "IPS Name": "", "CDN Type": "", "Zone Name": "", "Region": "", "Parent Region": ""}, "geometry": {"type": "Point", "coordinates": [4.895, 52.37]}}, {"type": "Feature", "properties": {"Provider": "Google", "Service Name": "pops", "URL": "https://peering.google.com/#/infrastructure", "City": "Ashburn", "Country": "United States", "Status": "Active", "IP Version": "", "Hosting Provider": "", "C Number": "", "Airport Code": "", "Airport Code Number": 0, "IPS Name": "", "CDN Type": "", "Zone Name": "", "Region": "", "Parent Region": ""}, "geometry": {"type": "Point", "coordinates": [-77.487, 39.044]}}, {"type": "Feature", "properties": {"Provider": "Google", "Service Name": "pops", "URL": "https://peering.google.com/#/infrastructure", "City": "Atlanta", "Country": "United States", "Status": "Active", "IP Version": "", "Hosting Provider": "", "C Number": "", "Airport Code": "", "Airport Code Number": 0, "IPS Name": "", "CDN Type": "", "Zone Name": "", "Region": "", "Parent Region": ""}, "geometry": {"type": "Point", "coordinates": [-84.388, 33.749]}}, {"type": "Feature", "properties": {"Provider": "Google", "Service Name": "pops", "URL": "https://peering.google.com/#/infrastructure", "City": "Budapest", "Country": "Hungary", "Status": "Active", "IP Version": "", "Hosting Provider": "", "C Number": "", "Airport Code": "", "Airport Code Number": 0, "IPS Name": "", "CDN Type": "", "Zone Name": "", "Region": "", "Parent Region": ""}, "geometry": {"type": "Point", "coordinates": [19.04, 47.498]}}, {"type": "Feature", "properties": {"Provider": "Google", "Service Name": "pops", "URL": "https://peering.google.com/#/infrastructure", "City": "Buenos Aires", "Country": "Argentina", "Status": "Active", "IP Version": "", "Hosting Provider": "", "C Number": "", "Airport Code": "", "Airport Code Number": 0, "IPS Name": "", "CDN Type": "", "Zone Name": "", "Region": "", "Parent Region": ""}, "geometry": {"type": "Point", "coordinates": [-58.382, -34.604]}}, {"type": "Feature", "properties": {"Provider": "Google", "Service Name": "pops", "URL": "https://peering.google.com/#/infrastructure", "City": "Chennai", "Country": "India", "Status": "Active", "IP Version": "", "Hosting Provider": "", "C Number": "", "Airport Code": "", "Airport Code Number": 0, "IPS Name": "", "CDN Type": "", "Zone Name": "", "Region": "", "Parent Region": ""}, "geometry": {"type": "Point", "coordinates": [80.251, 13.052]}}, {"type": "Feature", "properties": {"Provider": "Google", "Service Name": "pops", "URL": "https://peering.google.com/#/infrastructure", "City": "Chicago", "Country": "United States", "Status": "Active", "IP Version": "", "Hosting Provider": "", "C Number": "", "Airport Code": "", "Airport Code Number": 0, "IPS Name": "", "CDN Type": "", "Zone Name": "", "Region": "", "Parent Region": ""}, "geometry": {"type": "Point", "coordinates": [-87.63, 41.878]}}, {"type": "Feature", "properties": {"Provider": "Google", "Service Name": "pops", "URL": "https://peering.google.com/#/infrastructure", "City": "Dallas", "Country": "United States", "Status": "Active", "IP Version": "", "Hosting Provider": "", "C Number": "", "Airport Code": "", "Airport Code Number": 0, "IPS Name": "", "CDN Type": "", "Zone Name": "", "Region": "", "Parent Region": ""}, "geometry": {"type": "Point", "coordinates": [-96.8, 32.78]}}, {"type": "Feature", "properties": {"Provider": "Google", "Service Name": "pops", "URL": "https://peering.google.com/#/infrastructure", "City": "Denver", "Country": "United States", "Status": "Active", "IP Version": "", "Hosting Provider": "", "C Number": "", "Airport Code": "", "Airport Code Number": 0, "IPS Name": "", "CDN Type": "", "Zone Name": "", "Region": "", "Parent Region": ""}, "geometry": {"type": "Point", "coordinates": [-104.985, 39.738]}}, {"type": "Feature", "properties": {"Provider": "Google", "Service Name": "pops", "URL": "https://peering.google.com/#/infrastructure", "City": "Dublin", "Country": "Ireland", "Status": "Active", "IP Version": "", "Hosting Provider": "", "C Number": "", "Airport Code": "", "Airport Code Number": 0, "IPS Name": "", "CDN Type": "", "Zone Name": "", "Region": "", "Parent Region": ""}, "geometry": {"type": "Point", "coordinates": [-6.26, 53.35]}}, {"type": "Feature", "properties": {"Provider": "Google", "Service Name": "pops", "URL": "https://peering.google.com/#/infrastructure", "City": "Frankfurt", "Country": "Germany", "Status": "Active", "IP Version": "", "Hosting Provider": "", "C Number": "", "Airport Code": "", "Airport Code Number": 0, "IPS Name": "", "CDN Type": "", "Zone Name": "", "Region": "", "Parent Region": ""}, "geometry": {"type": "Point", "coordinates": [8.682, 50.111]}}, {"type": "Feature", "properties": {"Provider": "Google", "Service Name": "pops", "URL": "https://peering.google.com/#/infrastructure", "City": "Fujairah", "Country": "United Arab Emirates", "Status": "Active", "IP Version": "", "Hosting Provider": "", "C Number": "", "Airport Code": "", "Airport Code Number": 0, "IPS Name": "", "CDN Type": "", "Zone Name": "", "Region": "", "Parent Region": ""}, "geometry": {"type": "Point", "coordinates": [56.353, 25.117]}}, {"type": "Feature", "properties": {"Provider": "Google", "Service Name": "pops", "URL": "https://peering.google.com/#/infrastructure", "City": "Hamburg", "Country": "Germany", "Status": "Active", "IP Version": "", "Hosting Provider": "", "C Number": "", "Airport Code": "", "Airport Code Number": 0, "IPS Name": "", "CDN Type": "", "Zone Name": "", "Region": "", "Parent Region": ""}, "geometry": {"type": "Point", "coordinates": [9.994, 53.551]}}, {"type": "Feature", "properties": {"Provider": "Google", "Service Name": "pops", "URL": "https://peering.google.com/#/infrastructure", "City": "Tsuen Wan District", "Country": "China", "Status": "Active", "IP Version": "", "Hosting Provider": "", "C Number": "", "Airport Code": "", "Airport Code Number": 0, "IPS Name": "", "CDN Type": "", "Zone Name": "", "Region": "", "Parent Region": ""}, "geometry": {"type": "Point", "coordinates": [114.109, 22.396]}}, {"type": "Feature", "properties": {"Provider": "Google", "Service Name": "pops", "URL": "https://peering.google.com/#/infrastructure", "City": "Johannesburg", "Country": "South Africa", "Status": "Active", "IP Version": "", "Hosting Provider": "", "C Number": "", "Airport Code": "", "Airport Code Number": 0, "IPS Name": "", "CDN Type": "", "Zone Name": "", "Region": "", "Parent Region": ""}, "geometry": {"type": "Point", "coordinates": [28.047, -26.204]}}, {"type": "Feature", "properties": {"Provider": "Google", "Service Name": "pops", "URL": "https://peering.google.com/#/infrastructure", "City": "Kyiv", "Country": "Ukraine", "Status": "Active", "IP Version": "", "Hosting Provider": "", "C Number": "", "Airport Code": "", "Airport Code Number": 0, "IPS Name": "", "CDN Type": "", "Zone Name": "", "Region": "", "Parent Region": ""}, "geometry": {"type": "Point", "coordinates": [30.523, 50.45]}}, {"type": "Feature", "properties": {"Provider": "Google", "Service Name": "pops", "URL": "https://peering.google.com/#/infrastructure", "City": "Kuala Lumpur", "Country": "Malaysia", "Status": "Active", "IP Version": "", "Hosting Provider": "", "C Number": "", "Airport Code": "", "Airport Code Number": 0, "IPS Name": "", "CDN Type": "", "Zone Name": "", "Region": "", "Parent Region": ""}, "geometry": {"type": "Point", "coordinates": [101.687, 3.139]}}, {"type": "Feature", "properties": {"Provider": "Google", "Service Name": "pops", "URL": "https://peering.google.com/#/infrastructure", "City": "Shomolu", "Country": "Nigeria", "Status": "Active", "IP Version": "", "Hosting Provider": "", "C Number": "", "Airport Code": "", "Airport Code Number": 0, "IPS Name": "", "CDN Type": "", "Zone Name": "", "Region": "", "Parent Region": ""}, "geometry": {"type": "Point", "coordinates": [3.379, 6.524]}}, {"type": "Feature", "properties": {"Provider": "Google", "Service Name": "pops", "URL": "https://peering.google.com/#/infrastructure", "City": "Lisbon", "Country": "Portugal", "Status": "Active", "IP Version": "", "Hosting Provider": "", "C Number": "", "Airport Code": "", "Airport Code Number": 0, "IPS Name": "", "CDN Type": "", "Zone Name": "", "Region": "", "Parent Region": ""}, "geometry": {"type": "Point", "coordinates": [-9.139, 38.722]}}, {"type": "Feature", "properties": {"Provider": "Google", "Service Name": "pops", "URL": "https://peering.google.com/#/infrastructure", "City": "City of Westminster", "Country": "United Kingdom", "Status": "Active", "IP Version": "", "Hosting Provider": "", "C Number": "", "Airport Code": "", "Airport Code Number": 0, "IPS Name": "", "CDN Type": "", "Zone Name": "", "Region": "", "Parent Region": ""}, "geometry": {"type": "Point", "coordinates": [-0.125, 51.509]}}, {"type": "Feature", "properties": {"Provider": "Google", "Service Name": "pops", "URL": "https://peering.google.com/#/infrastructure", "City": "Los Angeles", "Country": "United States", "Status": "Active", "IP Version": "", "Hosting Provider": "", "C Number": "", "Airport Code": "", "Airport Code Number": 0, "IPS Name": "", "CDN Type": "", "Zone Name": "", "Region": "", "Parent Region": ""}, "geometry": {"type": "Point", "coordinates": [-118.244, 34.052]}}, {"type": "Feature", "properties": {"Provider": "Google", "Service Name": "pops", "URL": "https://peering.google.com/#/infrastructure", "City": "Madrid", "Country": "Spain", "Status": "Active", "IP Version": "", "Hosting Provider": "", "C Number": "", "Airport Code": "", "Airport Code Number": 0, "IPS Name": "", "CDN Type": "", "Zone Name": "", "Region": "", "Parent Region": ""}, "geometry": {"type": "Point", "coordinates": [-3.704, 40.417]}}, {"type": "Feature", "properties": {"Provider": "Google", "Service Name": "pops", "URL": "https://peering.google.com/#/infrastructure", "City": "Marseille", "Country": "France", "Status": "Active", "IP Version": "", "Hosting Provider": "", "C Number": "", "Airport Code": "", "Airport Code Number": 0, "IPS Name": "", "CDN Type": "", "Zone Name": "", "Region": "", "Parent Region": ""}, "geometry": {"type": "Point", "coordinates": [5.37, 43.296]}}, {"type": "Feature", "properties": {"Provider": "Google", "Service Name": "pops", "URL": "https://peering.google.com/#/infrastructure", "City": "Mexico City", "Country": "Mexico", "Status": "Active", "IP Version": "", "Hosting Provider": "", "C Number": "", "Airport Code": "", "Airport Code Number": 0, "IPS Name": "", "CDN Type": "", "Zone Name": "", "Region": "", "Parent Region": ""}, "geometry": {"type": "Point", "coordinates": [-99.133, 19.433]}}, {"type": "Feature", "properties": {"Provider": "Google", "Service Name": "pops", "URL": "https://peering.google.com/#/infrastructure", "City": "Miami", "Country": "United States", "Status": "Active", "IP Version": "", "Hosting Provider": "", "C Number": "", "Airport Code": "", "Airport Code Number": 0, "IPS Name": "", "CDN Type": "", "Zone Name": "", "Region": "", "Parent Region": ""}, "geometry": {"type": "Point", "coordinates": [-80.204, 25.789]}}, {"type": "Feature", "properties": {"Provider": "Google", "Service Name": "pops", "URL": "https://peering.google.com/#/infrastructure", "City": "Milan", "Country": "Italy", "Status": "Active", "IP Version": "", "Hosting Provider": "", "C Number": "", "Airport Code": "", "Airport Code Number": 0, "IPS Name": "", "CDN Type": "", "Zone Name": "", "Region": "", "Parent Region": ""}, "geometry": {"type": "Point", "coordinates": [9.187, 45.465]}}, {"type": "Feature", "properties": {"Provider": "Google", "Service Name": "pops", "URL": "https://peering.google.com/#/infrastructure", "City": "Mombasa", "Country": "Kenya", "Status": "Active", "IP Version": "", "Hosting Provider": "", "C Number": "", "Airport Code": "", "Airport Code Number": 0, "IPS Name": "", "CDN Type": "", "Zone Name": "", "Region": "", "Parent Region": ""}, "geometry": {"type": "Point", "coordinates": [39.668, -4.043]}}, {"type": "Feature", "properties": {"Provider": "Google", "Service Name": "pops", "URL": "https://peering.google.com/#/infrastructure", "City": "Moscow", "Country": "Russian Federation", "Status": "Active", "IP Version": "", "Hosting Provider": "", "C Number": "", "Airport Code": "", "Airport Code Number": 0, "IPS Name": "", "CDN Type": "", "Zone Name": "", "Region": "", "Parent Region": ""}, "geometry": {"type": "Point", "coordinates": [37.617, 55.756]}}, {"type": "Feature", "properties": {"Provider": "Google", "Service Name": "pops", "URL": "https://peering.google.com/#/infrastructure", "City": "Mumbai", "Country": "India", "Status": "Active", "IP Version": "", "Hosting Provider": "", "C Number": "", "Airport Code": "", "Airport Code Number": 0, "IPS Name": "", "CDN Type": "", "Zone Name": "", "Region": "", "Parent Region": ""}, "geometry": {"type": "Point", "coordinates": [72.878, 19.076]}}, {"type": "Feature", "properties": {"Provider": "Google", "Service Name": "pops", "URL": "https://peering.google.com/#/infrastructure", "City": "Munich", "Country": "Germany", "Status": "Active", "IP Version": "", "Hosting Provider": "", "C Number": "", "Airport Code": "", "Airport Code Number": 0, "IPS Name": "", "CDN Type": "", "Zone Name": "", "Region": "", "Parent Region": ""}, "geometry": {"type": "Point", "coordinates": [11.582, 48.135]}}, {"type": "Feature", "properties": {"Provider": "Google", "Service Name": "pops", "URL": "https://peering.google.com/#/infrastructure", "City": "Muscat", "Country": "Oman", "Status": "Active", "IP Version": "", "Hosting Provider": "", "C Number": "", "Airport Code": "", "Airport Code Number": 0, "IPS Name": "", "CDN Type": "", "Zone Name": "", "Region": "", "Parent Region": ""}, "geometry": {"type": "Point", "coordinates": [58.54, 23.61]}}, {"type": "Feature", "properties": {"Provider": "Google", "Service Name": "pops", "URL": "https://peering.google.com/#/infrastructure", "City": "Kotwali Tehsil", "Country": "India", "Status": "Active", "IP Version": "", "Hosting Provider": "", "C Number": "", "Airport Code": "", "Airport Code Number": 0, "IPS Name": "", "CDN Type": "", "Zone Name": "", "Region": "", "Parent Region": ""}, "geometry": {"type": "Point", "coordinates": [77.225, 28.635]}}, {"type": "Feature", "properties": {"Provider": "Google", "Service Name": "pops", "URL": "https://peering.google.com/#/infrastructure", "City": "New York", "Country": "United States", "Status": "Active", "IP Version": "", "Hosting Provider": "", "C Number": "", "Airport Code": "", "Airport Code Number": 0, "IPS Name": "", "CDN Type": "", "Zone Name": "", "Region": "", "Parent Region": ""}, "geometry": {"type": "Point", "coordinates": [-73.978, 40.706]}}, {"type": "Feature", "properties": {"Provider": "Google", "Service Name": "pops", "URL": "https://peering.google.com/#/infrastructure", "City": "Osaka", "Country": "Japan", "Status": "Active", "IP Version": "", "Hosting Provider": "", "C Number": "", "Airport Code": "", "Airport Code Number": 0, "IPS Name": "", "CDN Type": "", "Zone Name": "", "Region": "", "Parent Region": ""}, "geometry": {"type": "Point", "coordinates": [135.502, 34.694]}}, {"type": "Feature", "properties": {"Provider": "Google", "Service Name": "pops", "URL": "https://peering.google.com/#/infrastructure", "City": "Palo Alto", "Country": "United States", "Status": "Active", "IP Version": "", "Hosting Provider": "", "C Number": "", "Airport Code": "", "Airport Code Number": 0, "IPS Name": "", "CDN Type": "", "Zone Name": "", "Region": "", "Parent Region": ""}, "geometry": {"type": "Point", "coordinates": [-122.143, 37.442]}}, {"type": "Feature", "properties": {"Provider": "Google", "Service Name": "pops", "URL": "https://peering.google.com/#/infrastructure", "City": "Paris", "Country": "France", "Status": "Active", "IP Version": "", "Hosting Provider": "", "C Number": "", "Airport Code": "", "Airport Code Number": 0, "IPS Name": "", "CDN Type": "", "Zone Name": "", "Region": "", "Parent Region": ""}, "geometry": {"type": "Point", "coordinates": [2.352, 48.857]}}, {"type": "Feature", "properties": {"Provider": "Google", "Service Name": "pops", "URL": "https://peering.google.com/#/infrastructure", "City": "Prague", "Country": "Czechia", "Status": "Active", "IP Version": "", "Hosting Provider": "", "C Number": "", "Airport Code": "", "Airport Code Number": 0, "IPS Name": "", "CDN Type": "", "Zone Name": "", "Region": "", "Parent Region": ""}, "geometry": {"type": "Point", "coordinates": [14.438, 50.076]}}, {"type": "Feature", "properties": {"Provider": "Google", "Service Name": "pops", "URL": "https://peering.google.com/#/infrastructure", "City": "Rio de Janeiro", "Country": "Brazil", "Status": "Active", "IP Version": "", "Hosting Provider": "", "C Number": "", "Airport Code": "", "Airport Code Number": 0, "IPS Name": "", "CDN Type": "", "Zone Name": "", "Region": "", "Parent Region": ""}, "geometry": {"type": "Point", "coordinates": [-43.197, -22.908]}}, {"type": "Feature", "properties": {"Provider": "Google", "Service Name": "pops", "URL": "https://peering.google.com/#/infrastructure", "City": "Saint Petersburg", "Country": "Russian Federation", "Status": "Active", "IP Version": "", "Hosting Provider": "", "C Number": "", "Airport Code": "", "Airport Code Number": 0, "IPS Name": "", "CDN Type": "", "Zone Name": "", "Region": "", "Parent Region": ""}, "geometry": {"type": "Point", "coordinates": [30.335, 59.934]}}, {"type": "Feature", "properties": {"Provider": "Google", "Service Name": "pops", "URL": "https://peering.google.com/#/infrastructure", "City": "San Jose", "Country": "United States", "Status": "Active", "IP Version": "", "Hosting Provider": "", "C Number": "", "Airport Code": "", "Airport Code Number": 0, "IPS Name": "", "CDN Type": "", "Zone Name": "", "Region": "", "Parent Region": ""}, "geometry": {"type": "Point", "coordinates": [-121.895, 37.339]}}, {"type": "Feature", "properties": {"Provider": "Google", "Service Name": "pops", "URL": "https://peering.google.com/#/infrastructure", "City": "Santiago", "Country": "Chile", "Status": "Active", "IP Version": "", "Hosting Provider": "", "C Number": "", "Airport Code": "", "Airport Code Number": 0, "IPS Name": "", "CDN Type": "", "Zone Name": "", "Region": "", "Parent Region": ""}, "geometry": {"type": "Point", "coordinates": [-70.642, -33.469]}}, {"type": "Feature", "properties": {"Provider": "Google", "Service Name": "pops", "URL": "https://peering.google.com/#/infrastructure", "City": "S\u00e3o Paulo", "Country": "Brazil", "Status": "Active", "IP Version": "", "Hosting Provider": "", "C Number": "", "Airport Code": "", "Airport Code Number": 0, "IPS Name": "", "CDN Type": "", "Zone Name": "", "Region": "", "Parent Region": ""}, "geometry": {"type": "Point", "coordinates": [-46.633, -23.551]}}, {"type": "Feature", "properties": {"Provider": "Google", "Service Name": "pops", "URL": "https://peering.google.com/#/infrastructure", "City": "Seattle", "Country": "United States", "Status": "Active", "IP Version": "", "Hosting Provider": "", "C Number": "", "Airport Code": "", "Airport Code Number": 0, "IPS Name": "", "CDN Type": "", "Zone Name": "", "Region": "", "Parent Region": ""}, "geometry": {"type": "Point", "coordinates": [-122.332, 47.606]}}, {"type": "Feature", "properties": {"Provider": "Google", "Service Name": "pops", "URL": "https://peering.google.com/#/infrastructure", "City": "Singapore", "Country": "Singapore", "Status": "Active", "IP Version": "", "Hosting Provider": "", "C Number": "", "Airport Code": "", "Airport Code Number": 0, "IPS Name": "", "CDN Type": "", "Zone Name": "", "Region": "", "Parent Region": ""}, "geometry": {"type": "Point", "coordinates": [103.851, 1.28]}}, {"type": "Feature", "properties": {"Provider": "Google", "Service Name": "pops", "URL": "https://peering.google.com/#/infrastructure", "City": "Sofia", "Country": "Bulgaria", "Status": "Active", "IP Version": "", "Hosting Provider": "", "C Number": "", "Airport Code": "", "Airport Code Number": 0, "IPS Name": "", "CDN Type": "", "Zone Name": "", "Region": "", "Parent Region": ""}, "geometry": {"type": "Point", "coordinates": [23.322, 42.698]}}, {"type": "Feature", "properties": {"Provider": "Google", "Service Name": "pops", "URL": "https://peering.google.com/#/infrastructure", "City": "Stockholm", "Country": "Sweden", "Status": "Active", "IP Version": "", "Hosting Provider": "", "C Number": "", "Airport Code": "", "Airport Code Number": 0, "IPS Name": "", "CDN Type": "", "Zone Name": "", "Region": "", "Parent Region": ""}, "geometry": {"type": "Point", "coordinates": [18.065, 59.329]}}, {"type": "Feature", "properties": {"Provider": "Google", "Service Name": "pops", "URL": "https://peering.google.com/#/infrastructure", "City": "Sydney", "Country": "Australia", "Status": "Active", "IP Version": "", "Hosting Provider": "", "C Number": "", "Airport Code": "", "Airport Code Number": 0, "IPS Name": "", "CDN Type": "", "Zone Name": "", "Region": "", "Parent Region": ""}, "geometry": {"type": "Point", "coordinates": [151.207, -33.867]}}, {"type": "Feature", "properties": {"Provider": "Google", "Service Name": "pops", "URL": "https://peering.google.com/#/infrastructure", "City": "Taipei", "Country": "Taiwan, Province of China", "Status": "Active", "IP Version": "", "Hosting Provider": "", "C Number": "", "Airport Code": "", "Airport Code Number": 0, "IPS Name": "", "CDN Type": "", "Zone Name": "", "Region": "", "Parent Region": ""}, "geometry": {"type": "Point", "coordinates": [121.56, 25.091]}}, {"type": "Feature", "properties": {"Provider": "Google", "Service Name": "pops", "URL": "https://peering.google.com/#/infrastructure", "City": "Shinjuku", "Country": "Japan", "Status": "Active", "IP Version": "", "Hosting Provider": "", "C Number": "", "Airport Code": "", "Airport Code Number": 0, "IPS Name": "", "CDN Type": "", "Zone Name": "", "Region": "", "Parent Region": ""}, "geometry": {"type": "Point", "coordinates": [139.692, 35.689]}}, {"type": "Feature", "properties": {"Provider": "Google", "Service Name": "pops", "URL": "https://peering.google.com/#/infrastructure", "City": "Old Toronto", "Country": "Canada", "Status": "Active", "IP Version": "", "Hosting Provider": "", "C Number": "", "Airport Code": "", "Airport Code Number": 0, "IPS Name": "", "CDN Type": "", "Zone Name": "", "Region": "", "Parent Region": ""}, "geometry": {"type": "Point", "coordinates": [-79.383, 43.653]}}, {"type": "Feature", "properties": {"Provider": "Google", "Service Name": "pops", "URL": "https://peering.google.com/#/infrastructure", "City": "Zurich", "Country": "Switzerland", "Status": "Active", "IP Version": "", "Hosting Provider": "", "C Number": "", "Airport Code": "", "Airport Code Number": 0, "IPS Name": "", "CDN Type": "", "Zone Name": "", "Region": "", "Parent Region": ""}, "geometry": {"type": "Point", "coordinates": [8.539, 47.369]}}, {"type": "Feature", "properties": {"Provider": "Google", "Service Name": "pops", "URL": "https://peering.google.com/#/infrastructure", "City": "Bogota", "Country": "Colombia", "Status": "Active", "IP Version": "", "Hosting Provider": "", "C Number": "", "Airport Code": "", "Airport Code Number": 0, "IPS Name": "", "CDN Type": "", "Zone Name": "", "Region": "", "Parent Region": ""}, "geometry": {"type": "Point", "coordinates": [-74.076, 4.598]}}, {"type": "Feature", "properties": {"Provider": "Google", "Service Name": "pops", "URL": "https://peering.google.com/#/infrastructure", "City": "Warsaw", "Country": "Poland", "Status": "Active", "IP Version": "", "Hosting Provider": "", "C Number": "", "Airport Code": "", "Airport Code Number": 0, "IPS Name": "", "CDN Type": "", "Zone Name": "", "Region": "", "Parent Region": ""}, "geometry": {"type": "Point", "coordinates": [21.004, 52.227]}}, {"type": "Feature", "properties": {"Provider": "Google", "Service Name": "pops", "URL": "https://peering.google.com/#/infrastructure", "City": "Brussels", "Country": "Belgium", "Status": "Active", "IP Version": "", "Hosting Provider": "", "C Number": "", "Airport Code": "", "Airport Code Number": 0, "IPS Name": "", "CDN Type": "", "Zone Name": "", "Region": "", "Parent Region": ""}, "geometry": {"type": "Point", "coordinates": [4.349, 50.85]}}, {"type": "Feature", "properties": {"Provider": "Google", "Service Name": "pops", "URL": "https://peering.google.com/#/infrastructure", "City": "Doha", "Country": "Qatar", "Status": "Active", "IP Version": "", "Hosting Provider": "", "C Number": "", "Airport Code": "", "Airport Code Number": 0, "IPS Name": "", "CDN Type": "", "Zone Name": "", "Region": "", "Parent Region": ""}, "geometry": {"type": "Point", "coordinates": [51.535, 25.286]}}, {"type": "Feature", "properties": {"Provider": "Google", "Service Name": "pops", "URL": "https://peering.google.com/#/infrastructure", "City": "Helsinki", "Country": "Finland", "Status": "Active", "IP Version": "", "Hosting Provider": "", "C Number": "", "Airport Code": "", "Airport Code Number": 0, "IPS Name": "", "CDN Type": "", "Zone Name": "", "Region": "", "Parent Region": ""}, "geometry": {"type": "Point", "coordinates": [24.946, 60.192]}}, {"type": "Feature", "properties": {"Provider": "Google", "Service Name": "pops", "URL": "https://peering.google.com/#/infrastructure", "City": "Special Capital Region of Jakarta", "Country": "Indonesia", "Status": "Active", "IP Version": "", "Hosting Provider": "", "C Number": "", "Airport Code": "", "Airport Code Number": 0, "IPS Name": "", "CDN Type": "", "Zone Name": "", "Region": "", "Parent Region": ""}, "geometry": {"type": "Point", "coordinates": [106.817, -6.2]}}, {"type": "Feature", "properties": {"Provider": "Google", "Service Name": "pops", "URL": "https://peering.google.com/#/infrastructure", "City": "Manila", "Country": "Philippines", "Status": "Active", "IP Version": "", "Hosting Provider": "", "C Number": "", "Airport Code": "", "Airport Code Number": 0, "IPS Name": "", "CDN Type": "", "Zone Name": "", "Region": "", "Parent Region": ""}, "geometry": {"type": "Point", "coordinates": [120.984, 14.6]}}, {"type": "Feature", "properties": {"Provider": "Google", "Service Name": "pops", "URL": "https://peering.google.com/#/infrastructure", "City": "Salt Lake City", "Country": "United States", "Status": "Active", "IP Version": "", "Hosting Provider": "", "C Number": "", "Airport Code": "", "Airport Code Number": 0, "IPS Name": "", "CDN Type": "", "Zone Name": "", "Region": "", "Parent Region": ""}, "geometry": {"type": "Point", "coordinates": [-111.876, 40.759]}}, {"type": "Feature", "properties": {"Provider": "Google", "Service Name": "pops", "URL": "https://peering.google.com/#/infrastructure", "City": "Seoul", "Country": "Korea, Republic of", "Status": "Active", "IP Version": "", "Hosting Provider": "", "C Number": "", "Airport Code": "", "Airport Code Number": 0, "IPS Name": "", "CDN Type": "", "Zone Name": "", "Region": "", "Parent Region": ""}, "geometry": {"type": "Point", "coordinates": [127.025, 37.533]}}, {"type": "Feature", "properties": {"Provider": "Google", "Service Name": "pops", "URL": "https://peering.google.com/#/infrastructure", "City": "Herzliya", "Country": "Israel", "Status": "Active", "IP Version": "", "Hosting Provider": "", "C Number": "", "Airport Code": "", "Airport Code Number": 0, "IPS Name": "", "CDN Type": "", "Zone Name": "", "Region": "", "Parent Region": ""}, "geometry": {"type": "Point", "coordinates": [34.843, 32.166]}}, {"type": "Feature", "properties": {"Provider": "Google", "Service Name": "ggcs", "URL": "https://peering.google.com/#/infrastructure", "City": "Matsapha", "Country": "Eswatini", "Status": "Active", "IP Version": "", "Hosting Provider": "", "C Number": "", "Airport Code": "", "Airport Code Number": 0, "IPS Name": "", "CDN Type": "", "Zone Name": "", "Region": "", "Parent Region": ""}, "geometry": {"type": "Point", "coordinates": [31.314, -26.52]}}, {"type": "Feature", "properties": {"Provider": "Google", "Service Name": "ggcs", "URL": "https://peering.google.com/#/infrastructure", "City": "Lago Sul", "Country": "Brazil", "Status": "Active", "IP Version": "", "Hosting Provider": "", "C Number": "", "Airport Code": "", "Airport Code Number": 0, "IPS Name": "", "CDN Type": "", "Zone Name": "", "Region": "", "Parent Region": ""}, "geometry": {"type": "Point", "coordinates": [-47.919, -15.871]}}, {"type": "Feature", "properties": {"Provider": "Google", "Service Name": "ggcs", "URL": "https://peering.google.com/#/infrastructure", "City": "H\u00e0 N\u1ed9i", "Country": "Viet Nam", "Status": "Active", "IP Version": "", "Hosting Provider": "", "C Number": "", "Airport Code": "", "Airport Code Number": 0, "IPS Name": "", "CDN Type": "", "Zone Name": "", "Region": "", "Parent Region": ""}, "geometry": {"type": "Point", "coordinates": [105.807, 21.221]}}, {"type": "Feature", "properties": {"Provider": "Google", "Service Name": "ggcs", "URL": "https://peering.google.com/#/infrastructure", "City": "Tajiri", "Country": "Japan", "Status": "Active", "IP Version": "", "Hosting Provider": "", "C Number": "", "Airport Code": "", "Airport Code Number": 0, "IPS Name": "", "CDN Type": "", "Zone Name": "", "Region": "", "Parent Region": ""}, "geometry": {"type": "Point", "coordinates": [135.244, 34.427]}}, {"type": "Feature", "properties": {"Provider": "Google", "Service Name": "ggcs", "URL": "https://peering.google.com/#/infrastructure", "City": "Tbilisi", "Country": "Georgia", "Status": "Active", "IP Version": "", "Hosting Provider": "", "C Number": "", "Airport Code": "", "Airport Code Number": 0, "IPS Name": "", "CDN Type": "", "Zone Name": "", "Region": "", "Parent Region": ""}, "geometry": {"type": "Point", "coordinates": [44.955, 41.669]}}, {"type": "Feature", "properties": {"Provider": "Google", "Service Name": "ggcs", "URL": "https://peering.google.com/#/infrastructure", "City": "Saint Croix District", "Country": "United States", "Status": "Active", "IP Version": "", "Hosting Provider": "", "C Number": "", "Airport Code": "", "Airport Code Number": 0, "IPS Name": "", "CDN Type": "", "Zone Name": "", "Region": "", "Parent Region": ""}, "geometry": {"type": "Point", "coordinates": [-64.799, 17.702]}}, {"type": "Feature", "properties": {"Provider": "Google", "Service Name": "ggcs", "URL": "https://peering.google.com/#/infrastructure", "City": "Gaddala", "Country": "India", "Status": "Active", "IP Version": "", "Hosting Provider": "", "C Number": "", "Airport Code": "", "Airport Code Number": 0, "IPS Name": "", "CDN Type": "", "Zone Name": "", "Region": "", "Parent Region": ""}, "geometry": {"type": "Point", "coordinates": [81.819, 17.11]}}, {"type": "Feature", "properties": {"Provider": "Google", "Service Name": "ggcs", "URL": "https://peering.google.com/#/infrastructure", "City": "Richmond", "Country": "Canada", "Status": "Active", "IP Version": "", "Hosting Provider": "", "C Number": "", "Airport Code": "", "Airport Code Number": 0, "IPS Name": "", "CDN Type": "", "Zone Name": "", "Region": "", "Parent Region": ""}, "geometry": {"type": "Point", "coordinates": [-123.184, 49.194]}}, {"type": "Feature", "properties": {"Provider": "Google", "Service Name": "ggcs", "URL": "https://peering.google.com/#/infrastructure", "City": "C\u1ea7n Th\u01a1", "Country": "Viet Nam", "Status": "Active", "IP Version": "", "Hosting Provider": "", "C Number": "", "Airport Code": "", "Airport Code Number": 0, "IPS Name": "", "CDN Type": "", "Zone Name": "", "Region": "", "Parent Region": ""}, "geometry": {"type": "Point", "coordinates": [105.763, 10.051]}}, {"type": "Feature", "properties": {"Provider": "Google", "Service Name": "ggcs", "URL": "https://peering.google.com/#/infrastructure", "City": "", "Country": "Namibia", "Status": "Active", "IP Version": "", "Hosting Provider": "", "C Number": "", "Airport Code": "", "Airport Code Number": 0, "IPS Name": "", "CDN Type": "", "Zone Name": "", "Region": "", "Parent Region": ""}, "geometry": {"type": "Point", "coordinates": [17.471, -22.48]}}, {"type": "Feature", "properties": {"Provider": "Google", "Service Name": "ggcs", "URL": "https://peering.google.com/#/infrastructure", "City": "Palmira", "Country": "Colombia", "Status": "Active", "IP Version": "", "Hosting Provider": "", "C Number": "", "Airport Code": "", "Airport Code Number": 0, "IPS Name": "", "CDN Type": "", "Zone Name": "", "Region": "", "Parent Region": ""}, "geometry": {"type": "Point", "coordinates": [-76.382, 3.543]}}, {"type": "Feature", "properties": {"Provider": "Google", "Service Name": "ggcs", "URL": "https://peering.google.com/#/infrastructure", "City": "Khimki", "Country": "Russian Federation", "Status": "Active", "IP Version": "", "Hosting Provider": "", "C Number": "", "Airport Code": "", "Airport Code Number": 0, "IPS Name": "", "CDN Type": "", "Zone Name": "", "Region": "", "Parent Region": ""}, "geometry": {"type": "Point", "coordinates": [37.415, 55.973]}}, {"type": "Feature", "properties": {"Provider": "Google", "Service Name": "ggcs", "URL": "https://peering.google.com/#/infrastructure", "City": "Kharkiv", "Country": "Ukraine", "Status": "Active", "IP Version": "", "Hosting Provider": "", "C Number": "", "Airport Code": "", "Airport Code Number": 0, "IPS Name": "", "CDN Type": "", "Zone Name": "", "Region": "", "Parent Region": ""}, "geometry": {"type": "Point", "coordinates": [36.284, 49.926]}}, {"type": "Feature", "properties": {"Provider": "Google", "Service Name": "ggcs", "URL": "https://peering.google.com/#/infrastructure", "City": "Chiclayo", "Country": "Peru", "Status": "Active", "IP Version": "", "Hosting Provider": "", "C Number": "", "Airport Code": "", "Airport Code Number": 0, "IPS Name": "", "CDN Type": "", "Zone Name": "", "Region": "", "Parent Region": ""}, "geometry": {"type": "Point", "coordinates": [-79.828, -6.787]}}, {"type": "Feature", "properties": {"Provider": "Google", "Service Name": "ggcs", "URL": "https://peering.google.com/#/infrastructure", "City": "Buqar J\u0131raw District", "Country": "Kazakhstan", "Status": "Active", "IP Version": "", "Hosting Provider": "", "C Number": "", "Airport Code": "", "Airport Code Number": 0, "IPS Name": "", "CDN Type": "", "Zone Name": "", "Region": "", "Parent Region": ""}, "geometry": {"type": "Point", "coordinates": [73.334, 49.671]}}, {"type": "Feature", "properties": {"Provider": "Google", "Service Name": "ggcs", "URL": "https://peering.google.com/#/infrastructure", "City": "Brisbane Airport", "Country": "Australia", "Status": "Active", "IP Version": "", "Hosting Provider": "", "C Number": "", "Airport Code": "", "Airport Code Number": 0, "IPS Name": "", "CDN Type": "", "Zone Name": "", "Region": "", "Parent Region": ""}, "geometry": {"type": "Point", "coordinates": [153.118, -27.384]}}, {"type": "Feature", "properties": {"Provider": "Google", "Service Name": "ggcs", "URL": "https://peering.google.com/#/infrastructure", "City": "Melbourne", "Country": "Australia", "Status": "Active", "IP Version": "", "Hosting Provider": "", "C Number": "", "Airport Code": "", "Airport Code Number": 0, "IPS Name": "", "CDN Type": "", "Zone Name": "", "Region": "", "Parent Region": ""}, "geometry": {"type": "Point", "coordinates": [144.843, -37.673]}}, {"type": "Feature", "properties": {"Provider": "Google", "Service Name": "ggcs", "URL": "https://peering.google.com/#/infrastructure", "City": "Veracruz", "Country": "Mexico", "Status": "Active", "IP Version": "", "Hosting Provider": "", "C Number": "", "Airport Code": "", "Airport Code Number": 0, "IPS Name": "", "CDN Type": "", "Zone Name": "", "Region": "", "Parent Region": ""}, "geometry": {"type": "Point", "coordinates": [-96.187, 19.146]}}, {"type": "Feature", "properties": {"Provider": "Google", "Service Name": "ggcs", "URL": "https://peering.google.com/#/infrastructure", "City": "Khan Pou Senchey", "Country": "Cambodia", "Status": "Active", "IP Version": "", "Hosting Provider": "", "C Number": "", "Airport Code": "", "Airport Code Number": 0, "IPS Name": "", "CDN Type": "", "Zone Name": "", "Region": "", "Parent Region": ""}, "geometry": {"type": "Point", "coordinates": [104.844, 11.547]}}, {"type": "Feature", "properties": {"Provider": "Google", "Service Name": "ggcs", "URL": "https://peering.google.com/#/infrastructure", "City": "Ivanovo", "Country": "Russian Federation", "Status": "Active", "IP Version": "", "Hosting Provider": "", "C Number": "", "Airport Code": "", "Airport Code Number": 0, "IPS Name": "", "CDN Type": "", "Zone Name": "", "Region": "", "Parent Region": ""}, "geometry": {"type": "Point", "coordinates": [40.98, 57.058]}}, {"type": "Feature", "properties": {"Provider": "Google", "Service Name": "ggcs", "URL": "https://peering.google.com/#/infrastructure", "City": "Vinnytsia", "Country": "Ukraine", "Status": "Active", "IP Version": "", "Hosting Provider": "", "C Number": "", "Airport Code": "", "Airport Code Number": 0, "IPS Name": "", "CDN Type": "", "Zone Name": "", "Region": "", "Parent Region": ""}, "geometry": {"type": "Point", "coordinates": [28.61, 49.245]}}, {"type": "Feature", "properties": {"Provider": "Google", "Service Name": "ggcs", "URL": "https://peering.google.com/#/infrastructure", "City": "City of Belmont", "Country": "Australia", "Status": "Active", "IP Version": "", "Hosting Provider": "", "C Number": "", "Airport Code": "", "Airport Code Number": 0, "IPS Name": "", "CDN Type": "", "Zone Name": "", "Region": "", "Parent Region": ""}, "geometry": {"type": "Point", "coordinates": [115.967, -31.94]}}, {"type": "Feature", "properties": {"Provider": "Google", "Service Name": "ggcs", "URL": "https://peering.google.com/#/infrastructure", "City": "Antofagasta", "Country": "Chile", "Status": "Active", "IP Version": "", "Hosting Provider": "", "C Number": "", "Airport Code": "", "Airport Code Number": 0, "IPS Name": "", "CDN Type": "", "Zone Name": "", "Region": "", "Parent Region": ""}, "geometry": {"type": "Point", "coordinates": [-70.445, -23.444]}}, {"type": "Feature", "properties": {"Provider": "Google", "Service Name": "ggcs", "URL": "https://peering.google.com/#/infrastructure", "City": "Dauphin County", "Country": "United States", "Status": "Active", "IP Version": "", "Hosting Provider": "", "C Number": "", "Airport Code": "", "Airport Code Number": 0, "IPS Name": "", "CDN Type": "", "Zone Name": "", "Region": "", "Parent Region": ""}, "geometry": {"type": "Point", "coordinates": [-76.763, 40.194]}}, {"type": "Feature", "properties": {"Provider": "Google", "Service Name": "ggcs", "URL": "https://peering.google.com/#/infrastructure", "City": "H\u00e9singue", "Country": "France", "Status": "Active", "IP Version": "", "Hosting Provider": "", "C Number": "", "Airport Code": "", "Airport Code Number": 0, "IPS Name": "", "CDN Type": "", "Zone Name": "", "Region": "", "Parent Region": ""}, "geometry": {"type": "Point", "coordinates": [7.522, 47.601]}}, {"type": "Feature", "properties": {"Provider": "Google", "Service Name": "ggcs", "URL": "https://peering.google.com/#/infrastructure", "City": "", "Country": "Azerbaijan", "Status": "Active", "IP Version": "", "Hosting Provider": "", "C Number": "", "Airport Code": "", "Airport Code Number": 0, "IPS Name": "", "CDN Type": "", "Zone Name": "", "Region": "", "Parent Region": ""}, "geometry": {"type": "Point", "coordinates": [50.047, 40.468]}}, {"type": "Feature", "properties": {"Provider": "Google", "Service Name": "ggcs", "URL": "https://peering.google.com/#/infrastructure", "City": "Porto Seguro", "Country": "Brazil", "Status": "Active", "IP Version": "", "Hosting Provider": "", "C Number": "", "Airport Code": "", "Airport Code Number": 0, "IPS Name": "", "CDN Type": "", "Zone Name": "", "Region": "", "Parent Region": ""}, "geometry": {"type": "Point", "coordinates": [-39.081, -16.439]}}, {"type": "Feature", "properties": {"Provider": "Google", "Service Name": "ggcs", "URL": "https://peering.google.com/#/infrastructure", "City": "Fortaleza", "Country": "Brazil", "Status": "Active", "IP Version": "", "Hosting Provider": "", "C Number": "", "Airport Code": "", "Airport Code Number": 0, "IPS Name": "", "CDN Type": "", "Zone Name": "", "Region": "", "Parent Region": ""}, "geometry": {"type": "Point", "coordinates": [-38.532, -3.776]}}, {"type": "Feature", "properties": {"Provider": "Google", "Service Name": "ggcs", "URL": "https://peering.google.com/#/infrastructure", "City": "Sola", "Country": "Norway", "Status": "Active", "IP Version": "", "Hosting Provider": "", "C Number": "", "Airport Code": "", "Airport Code Number": 0, "IPS Name": "", "CDN Type": "", "Zone Name": "", "Region": "", "Parent Region": ""}, "geometry": {"type": "Point", "coordinates": [5.638, 58.877]}}, {"type": "Feature", "properties": {"Provider": "Google", "Service Name": "ggcs", "URL": "https://peering.google.com/#/infrastructure", "City": "Little Rock", "Country": "United States", "Status": "Active", "IP Version": "", "Hosting Provider": "", "C Number": "", "Airport Code": "", "Airport Code Number": 0, "IPS Name": "", "CDN Type": "", "Zone Name": "", "Region": "", "Parent Region": ""}, "geometry": {"type": "Point", "coordinates": [-92.224, 34.729]}}, {"type": "Feature", "properties": {"Provider": "Google", "Service Name": "ggcs", "URL": "https://peering.google.com/#/infrastructure", "City": "Portland", "Country": "United States", "Status": "Active", "IP Version": "", "Hosting Provider": "", "C Number": "", "Airport Code": "", "Airport Code Number": 0, "IPS Name": "", "CDN Type": "", "Zone Name": "", "Region": "", "Parent Region": ""}, "geometry": {"type": "Point", "coordinates": [-122.597, 45.589]}}, {"type": "Feature", "properties": {"Provider": "Google", "Service Name": "ggcs", "URL": "https://peering.google.com/#/infrastructure", "City": "Romulus", "Country": "United States", "Status": "Active", "IP Version": "", "Hosting Provider": "", "C Number": "", "Airport Code": "", "Airport Code Number": 0, "IPS Name": "", "CDN Type": "", "Zone Name": "", "Region": "", "Parent Region": ""}, "geometry": {"type": "Point", "coordinates": [-83.353, 42.212]}}, {"type": "Feature", "properties": {"Provider": "Google", "Service Name": "ggcs", "URL": "https://peering.google.com/#/infrastructure", "City": "Bhopal", "Country": "India", "Status": "Active", "IP Version": "", "Hosting Provider": "", "C Number": "", "Airport Code": "", "Airport Code Number": 0, "IPS Name": "", "CDN Type": "", "Zone Name": "", "Region": "", "Parent Region": ""}, "geometry": {"type": "Point", "coordinates": [77.338, 23.288]}}, {"type": "Feature", "properties": {"Provider": "Google", "Service Name": "ggcs", "URL": "https://peering.google.com/#/infrastructure", "City": "Es Senia", "Country": "Algeria", "Status": "Active", "IP Version": "", "Hosting Provider": "", "C Number": "", "Airport Code": "", "Airport Code Number": 0, "IPS Name": "", "CDN Type": "", "Zone Name": "", "Region": "", "Parent Region": ""}, "geometry": {"type": "Point", "coordinates": [-0.621, 35.624]}}, {"type": "Feature", "properties": {"Provider": "Google", "Service Name": "ggcs", "URL": "https://peering.google.com/#/infrastructure", "City": "Terekti District", "Country": "Kazakhstan", "Status": "Active", "IP Version": "", "Hosting Provider": "", "C Number": "", "Airport Code": "", "Airport Code Number": 0, "IPS Name": "", "CDN Type": "", "Zone Name": "", "Region": "", "Parent Region": ""}, "geometry": {"type": "Point", "coordinates": [51.542, 51.151]}}, {"type": "Feature", "properties": {"Provider": "Google", "Service Name": "ggcs", "URL": "https://peering.google.com/#/infrastructure", "City": "Pattaya", "Country": "Thailand", "Status": "Active", "IP Version": "", "Hosting Provider": "", "C Number": "", "Airport Code": "", "Airport Code Number": 0, "IPS Name": "", "CDN Type": "", "Zone Name": "", "Region": "", "Parent Region": ""}, "geometry": {"type": "Point", "coordinates": [100.883, 12.95]}}, {"type": "Feature", "properties": {"Provider": "Google", "Service Name": "ggcs", "URL": "https://peering.google.com/#/infrastructure", "City": "Rio Largo", "Country": "Brazil", "Status": "Active", "IP Version": "", "Hosting Provider": "", "C Number": "", "Airport Code": "", "Airport Code Number": 0, "IPS Name": "", "CDN Type": "", "Zone Name": "", "Region": "", "Parent Region": ""}, "geometry": {"type": "Point", "coordinates": [-35.792, -9.511]}}, {"type": "Feature", "properties": {"Provider": "Google", "Service Name": "ggcs", "URL": "https://peering.google.com/#/infrastructure", "City": "Wake County", "Country": "United States", "Status": "Active", "IP Version": "", "Hosting Provider": "", "C Number": "", "Airport Code": "", "Airport Code Number": 0, "IPS Name": "", "CDN Type": "", "Zone Name": "", "Region": "", "Parent Region": ""}, "geometry": {"type": "Point", "coordinates": [-78.787, 35.878]}}, {"type": "Feature", "properties": {"Provider": "Google", "Service Name": "ggcs", "URL": "https://peering.google.com/#/infrastructure", "City": "Latacunga", "Country": "Ecuador", "Status": "Active", "IP Version": "", "Hosting Provider": "", "C Number": "", "Airport Code": "", "Airport Code Number": 0, "IPS Name": "", "CDN Type": "", "Zone Name": "", "Region": "", "Parent Region": ""}, "geometry": {"type": "Point", "coordinates": [-78.616, -0.907]}}, {"type": "Feature", "properties": {"Provider": "Google", "Service Name": "ggcs", "URL": "https://peering.google.com/#/infrastructure", "City": "St.Thomas Mount-Pallavaram Cantonment Board", "Country": "India", "Status": "Active", "IP Version": "", "Hosting Provider": "", "C Number": "", "Airport Code": "", "Airport Code Number": 0, "IPS Name": "", "CDN Type": "", "Zone Name": "", "Region": "", "Parent Region": ""}, "geometry": {"type": "Point", "coordinates": [80.181, 12.994]}}, {"type": "Feature", "properties": {"Provider": "Google", "Service Name": "ggcs", "URL": "https://peering.google.com/#/infrastructure", "City": "San Cayetano", "Country": "Mexico", "Status": "Active", "IP Version": "", "Hosting Provider": "", "C Number": "", "Airport Code": "", "Airport Code Number": 0, "IPS Name": "", "CDN Type": "", "Zone Name": "", "Region": "", "Parent Region": ""}, "geometry": {"type": "Point", "coordinates": [-104.843, 21.419]}}, {"type": "Feature", "properties": {"Provider": "Google", "Service Name": "ggcs", "URL": "https://peering.google.com/#/infrastructure", "City": "Tijuana", "Country": "Mexico", "Status": "Active", "IP Version": "", "Hosting Provider": "", "C Number": "", "Airport Code": "", "Airport Code Number": 0, "IPS Name": "", "CDN Type": "", "Zone Name": "", "Region": "", "Parent Region": ""}, "geometry": {"type": "Point", "coordinates": [-116.97, 32.541]}}, {"type": "Feature", "properties": {"Provider": "Google", "Service Name": "ggcs", "URL": "https://peering.google.com/#/infrastructure", "City": "Goi\u00e2nia", "Country": "Brazil", "Status": "Active", "IP Version": "", "Hosting Provider": "", "C Number": "", "Airport Code": "", "Airport Code Number": 0, "IPS Name": "", "CDN Type": "", "Zone Name": "", "Region": "", "Parent Region": ""}, "geometry": {"type": "Point", "coordinates": [-49.221, -16.632]}}, {"type": "Feature", "properties": {"Provider": "Google", "Service Name": "ggcs", "URL": "https://peering.google.com/#/infrastructure", "City": "Wroc\u0142aw", "Country": "Poland", "Status": "Active", "IP Version": "", "Hosting Provider": "", "C Number": "", "Airport Code": "", "Airport Code Number": 0, "IPS Name": "", "CDN Type": "", "Zone Name": "", "Region": "", "Parent Region": ""}, "geometry": {"type": "Point", "coordinates": [16.886, 51.103]}}, {"type": "Feature", "properties": {"Provider": "Google", "Service Name": "ggcs", "URL": "https://peering.google.com/#/infrastructure", "City": "Uzhhorod", "Country": "Ukraine", "Status": "Active", "IP Version": "", "Hosting Provider": "", "C Number": "", "Airport Code": "", "Airport Code Number": 0, "IPS Name": "", "CDN Type": "", "Zone Name": "", "Region": "", "Parent Region": ""}, "geometry": {"type": "Point", "coordinates": [22.263, 48.634]}}, {"type": "Feature", "properties": {"Provider": "Google", "Service Name": "ggcs", "URL": "https://peering.google.com/#/infrastructure", "City": "Rushcliffe", "Country": "United Kingdom", "Status": "Active", "IP Version": "", "Hosting Provider": "", "C Number": "", "Airport Code": "", "Airport Code Number": 0, "IPS Name": "", "CDN Type": "", "Zone Name": "", "Region": "", "Parent Region": ""}, "geometry": {"type": "Point", "coordinates": [-1.079, 52.92]}}, {"type": "Feature", "properties": {"Provider": "Google", "Service Name": "ggcs", "URL": "https://peering.google.com/#/infrastructure", "City": "Nairobi", "Country": "Kenya", "Status": "Active", "IP Version": "", "Hosting Provider": "", "C Number": "", "Airport Code": "", "Airport Code Number": 0, "IPS Name": "", "CDN Type": "", "Zone Name": "", "Region": "", "Parent Region": ""}, "geometry": {"type": "Point", "coordinates": [36.928, -1.319]}}, {"type": "Feature", "properties": {"Provider": "Google", "Service Name": "ggcs", "URL": "https://peering.google.com/#/infrastructure", "City": "Austin", "Country": "United States", "Status": "Active", "IP Version": "", "Hosting Provider": "", "C Number": "", "Airport Code": "", "Airport Code Number": 0, "IPS Name": "", "CDN Type": "", "Zone Name": "", "Region": "", "Parent Region": ""}, "geometry": {"type": "Point", "coordinates": [-97.67, 30.194]}}, {"type": "Feature", "properties": {"Provider": "Google", "Service Name": "ggcs", "URL": "https://peering.google.com/#/infrastructure", "City": "Tegucigalpa", "Country": "Honduras", "Status": "Active", "IP Version": "", "Hosting Provider": "", "C Number": "", "Airport Code": "", "Airport Code Number": 0, "IPS Name": "", "CDN Type": "", "Zone Name": "", "Region": "", "Parent Region": ""}, "geometry": {"type": "Point", "coordinates": [-87.217, 14.061]}}, {"type": "Feature", "properties": {"Provider": "Google", "Service Name": "ggcs", "URL": "https://peering.google.com/#/infrastructure", "City": "Regina", "Country": "Canada", "Status": "Active", "IP Version": "", "Hosting Provider": "", "C Number": "", "Airport Code": "", "Airport Code Number": 0, "IPS Name": "", "CDN Type": "", "Zone Name": "", "Region": "", "Parent Region": ""}, "geometry": {"type": "Point", "coordinates": [-104.657, 50.429]}}, {"type": "Feature", "properties": {"Provider": "Google", "Service Name": "ggcs", "URL": "https://peering.google.com/#/infrastructure", "City": "Madison", "Country": "United States", "Status": "Active", "IP Version": "", "Hosting Provider": "", "C Number": "", "Airport Code": "", "Airport Code Number": 0, "IPS Name": "", "CDN Type": "", "Zone Name": "", "Region": "", "Parent Region": ""}, "geometry": {"type": "Point", "coordinates": [-89.338, 43.14]}}, {"type": "Feature", "properties": {"Provider": "Google", "Service Name": "ggcs", "URL": "https://peering.google.com/#/infrastructure", "City": "Lucas County", "Country": "United States", "Status": "Active", "IP Version": "", "Hosting Provider": "", "C Number": "", "Airport Code": "", "Airport Code Number": 0, "IPS Name": "", "CDN Type": "", "Zone Name": "", "Region": "", "Parent Region": ""}, "geometry": {"type": "Point", "coordinates": [-83.808, 41.587]}}, {"type": "Feature", "properties": {"Provider": "Google", "Service Name": "ggcs", "URL": "https://peering.google.com/#/infrastructure", "City": "Champaign County", "Country": "United States", "Status": "Active", "IP Version": "", "Hosting Provider": "", "C Number": "", "Airport Code": "", "Airport Code Number": 0, "IPS Name": "", "CDN Type": "", "Zone Name": "", "Region": "", "Parent Region": ""}, "geometry": {"type": "Point", "coordinates": [-88.278, 40.039]}}, {"type": "Feature", "properties": {"Provider": "Google", "Service Name": "ggcs", "URL": "https://peering.google.com/#/infrastructure", "City": "San Juan Bautista", "Country": "Peru", "Status": "Active", "IP Version": "", "Hosting Provider": "", "C Number": "", "Airport Code": "", "Airport Code Number": 0, "IPS Name": "", "CDN Type": "", "Zone Name": "", "Region": "", "Parent Region": ""}, "geometry": {"type": "Point", "coordinates": [-73.309, -3.785]}}, {"type": "Feature", "properties": {"Provider": "Google", "Service Name": "ggcs", "URL": "https://peering.google.com/#/infrastructure", "City": "Reykjavik", "Country": "Iceland", "Status": "Active", "IP Version": "", "Hosting Provider": "", "C Number": "", "Airport Code": "", "Airport Code Number": 0, "IPS Name": "", "CDN Type": "", "Zone Name": "", "Region": "", "Parent Region": ""}, "geometry": {"type": "Point", "coordinates": [-21.941, 64.13]}}, {"type": "Feature", "properties": {"Provider": "Google", "Service Name": "ggcs", "URL": "https://peering.google.com/#/infrastructure", "City": "eThekwini Metropolitan Municipality", "Country": "South Africa", "Status": "Active", "IP Version": "", "Hosting Provider": "", "C Number": "", "Airport Code": "", "Airport Code Number": 0, "IPS Name": "", "CDN Type": "", "Zone Name": "", "Region": "", "Parent Region": ""}, "geometry": {"type": "Point", "coordinates": [31.116, -29.614]}}, {"type": "Feature", "properties": {"Provider": "Google", "Service Name": "ggcs", "URL": "https://peering.google.com/#/infrastructure", "City": "Seville", "Country": "Spain", "Status": "Active", "IP Version": "", "Hosting Provider": "", "C Number": "", "Airport Code": "", "Airport Code Number": 0, "IPS Name": "", "CDN Type": "", "Zone Name": "", "Region": "", "Parent Region": ""}, "geometry": {"type": "Point", "coordinates": [-5.893, 37.418]}}, {"type": "Feature", "properties": {"Provider": "Google", "Service Name": "ggcs", "URL": "https://peering.google.com/#/infrastructure", "City": "Gornje Dubrave", "Country": "Bosnia and Herzegovina", "Status": "Active", "IP Version": "", "Hosting Provider": "", "C Number": "", "Airport Code": "", "Airport Code Number": 0, "IPS Name": "", "CDN Type": "", "Zone Name": "", "Region": "", "Parent Region": ""}, "geometry": {"type": "Point", "coordinates": [18.726, 44.459]}}, {"type": "Feature", "properties": {"Provider": "Google", "Service Name": "ggcs", "URL": "https://peering.google.com/#/infrastructure", "City": "Grand Junction", "Country": "United States", "Status": "Active", "IP Version": "", "Hosting Provider": "", "C Number": "", "Airport Code": "", "Airport Code Number": 0, "IPS Name": "", "CDN Type": "", "Zone Name": "", "Region": "", "Parent Region": ""}, "geometry": {"type": "Point", "coordinates": [-108.526, 39.123]}}, {"type": "Feature", "properties": {"Provider": "Google", "Service Name": "ggcs", "URL": "https://peering.google.com/#/infrastructure", "City": "Culiac\u00e1n", "Country": "Mexico", "Status": "Active", "IP Version": "", "Hosting Provider": "", "C Number": "", "Airport Code": "", "Airport Code Number": 0, "IPS Name": "", "CDN Type": "", "Zone Name": "", "Region": "", "Parent Region": ""}, "geometry": {"type": "Point", "coordinates": [-107.475, 24.764]}}, {"type": "Feature", "properties": {"Provider": "Google", "Service Name": "ggcs", "URL": "https://peering.google.com/#/infrastructure", "City": "Bologna", "Country": "Italy", "Status": "Active", "IP Version": "", "Hosting Provider": "", "C Number": "", "Airport Code": "", "Airport Code Number": 0, "IPS Name": "", "CDN Type": "", "Zone Name": "", "Region": "", "Parent Region": ""}, "geometry": {"type": "Point", "coordinates": [11.297, 44.531]}}, {"type": "Feature", "properties": {"Provider": "Google", "Service Name": "ggcs", "URL": "https://peering.google.com/#/infrastructure", "City": "Punta Arenas", "Country": "Chile", "Status": "Active", "IP Version": "", "Hosting Provider": "", "C Number": "", "Airport Code": "", "Airport Code Number": 0, "IPS Name": "", "CDN Type": "", "Zone Name": "", "Region": "", "Parent Region": ""}, "geometry": {"type": "Point", "coordinates": [-70.855, -53.003]}}, {"type": "Feature", "properties": {"Provider": "Google", "Service Name": "ggcs", "URL": "https://peering.google.com/#/infrastructure", "City": "Arica", "Country": "Chile", "Status": "Active", "IP Version": "", "Hosting Provider": "", "C Number": "", "Airport Code": "", "Airport Code Number": 0, "IPS Name": "", "CDN Type": "", "Zone Name": "", "Region": "", "Parent Region": ""}, "geometry": {"type": "Point", "coordinates": [-70.339, -18.349]}}, {"type": "Feature", "properties": {"Provider": "Google", "Service Name": "ggcs", "URL": "https://peering.google.com/#/infrastructure", "City": "Mo\u0161nov", "Country": "Czechia", "Status": "Active", "IP Version": "", "Hosting Provider": "", "C Number": "", "Airport Code": "", "Airport Code Number": 0, "IPS Name": "", "CDN Type": "", "Zone Name": "", "Region": "", "Parent Region": ""}, "geometry": {"type": "Point", "coordinates": [18.111, 49.696]}}, {"type": "Feature", "properties": {"Provider": "Google", "Service Name": "ggcs", "URL": "https://peering.google.com/#/infrastructure", "City": "Talbot", "Country": "Seychelles", "Status": "Active", "IP Version": "", "Hosting Provider": "", "C Number": "", "Airport Code": "", "Airport Code Number": 0, "IPS Name": "", "CDN Type": "", "Zone Name": "", "Region": "", "Parent Region": ""}, "geometry": {"type": "Point", "coordinates": [55.522, -4.674]}}, {"type": "Feature", "properties": {"Provider": "Google", "Service Name": "ggcs", "URL": "https://peering.google.com/#/infrastructure", "City": "Quilpu\u00e9", "Country": "Chile", "Status": "Active", "IP Version": "", "Hosting Provider": "", "C Number": "", "Airport Code": "", "Airport Code Number": 0, "IPS Name": "", "CDN Type": "", "Zone Name": "", "Region": "", "Parent Region": ""}, "geometry": {"type": "Point", "coordinates": [-71.417, -33.05]}}, {"type": "Feature", "properties": {"Provider": "Google", "Service Name": "ggcs", "URL": "https://peering.google.com/#/infrastructure", "City": "Matoury", "Country": "France", "Status": "Active", "IP Version": "", "Hosting Provider": "", "C Number": "", "Airport Code": "", "Airport Code Number": 0, "IPS Name": "", "CDN Type": "", "Zone Name": "", "Region": "", "Parent Region": ""}, "geometry": {"type": "Point", "coordinates": [-52.361, 4.82]}}, {"type": "Feature", "properties": {"Provider": "Google", "Service Name": "ggcs", "URL": "https://peering.google.com/#/infrastructure", "City": "Napier", "Country": "New Zealand", "Status": "Active", "IP Version": "", "Hosting Provider": "", "C Number": "", "Airport Code": "", "Airport Code Number": 0, "IPS Name": "", "CDN Type": "", "Zone Name": "", "Region": "", "Parent Region": ""}, "geometry": {"type": "Point", "coordinates": [176.868, -39.464]}}, {"type": "Feature", "properties": {"Provider": "Google", "Service Name": "ggcs", "URL": "https://peering.google.com/#/infrastructure", "City": "Putatan", "Country": "Malaysia", "Status": "Active", "IP Version": "", "Hosting Provider": "", "C Number": "", "Airport Code": "", "Airport Code Number": 0, "IPS Name": "", "CDN Type": "", "Zone Name": "", "Region": "", "Parent Region": ""}, "geometry": {"type": "Point", "coordinates": [116.053, 5.937]}}, {"type": "Feature", "properties": {"Provider": "Google", "Service Name": "ggcs", "URL": "https://peering.google.com/#/infrastructure", "City": "Conakry", "Country": "Guinea", "Status": "Active", "IP Version": "", "Hosting Provider": "", "C Number": "", "Airport Code": "", "Airport Code Number": 0, "IPS Name": "", "CDN Type": "", "Zone Name": "", "Region": "", "Parent Region": ""}, "geometry": {"type": "Point", "coordinates": [-13.612, 9.577]}}, {"type": "Feature", "properties": {"Provider": "Google", "Service Name": "ggcs", "URL": "https://peering.google.com/#/infrastructure", "City": "Timika", "Country": "Indonesia", "Status": "Active", "IP Version": "", "Hosting Provider": "", "C Number": "", "Airport Code": "", "Airport Code Number": 0, "IPS Name": "", "CDN Type": "", "Zone Name": "", "Region": "", "Parent Region": ""}, "geometry": {"type": "Point", "coordinates": [136.887, -4.528]}}, {"type": "Feature", "properties": {"Provider": "Google", "Service Name": "ggcs", "URL": "https://peering.google.com/#/infrastructure", "City": "G\u00fc\u00e9mez", "Country": "Mexico", "Status": "Active", "IP Version": "", "Hosting Provider": "", "C Number": "", "Airport Code": "", "Airport Code Number": 0, "IPS Name": "", "CDN Type": "", "Zone Name": "", "Region": "", "Parent Region": ""}, "geometry": {"type": "Point", "coordinates": [-98.956, 23.703]}}, {"type": "Feature", "properties": {"Provider": "Google", "Service Name": "ggcs", "URL": "https://peering.google.com/#/infrastructure", "City": "Salekhard Urban Okrug", "Country": "Russian Federation", "Status": "Active", "IP Version": "", "Hosting Provider": "", "C Number": "", "Airport Code": "", "Airport Code Number": 0, "IPS Name": "", "CDN Type": "", "Zone Name": "", "Region": "", "Parent Region": ""}, "geometry": {"type": "Point", "coordinates": [66.611, 66.591]}}, {"type": "Feature", "properties": {"Provider": "Google", "Service Name": "ggcs", "URL": "https://peering.google.com/#/infrastructure", "City": "Kostroma", "Country": "Russian Federation", "Status": "Active", "IP Version": "", "Hosting Provider": "", "C Number": "", "Airport Code": "", "Airport Code Number": 0, "IPS Name": "", "CDN Type": "", "Zone Name": "", "Region": "", "Parent Region": ""}, "geometry": {"type": "Point", "coordinates": [40.933, 57.75]}}, {"type": "Feature", "properties": {"Provider": "Google", "Service Name": "ggcs", "URL": "https://peering.google.com/#/infrastructure", "City": "Feira de Santana", "Country": "Brazil", "Status": "Active", "IP Version": "", "Hosting Provider": "", "C Number": "", "Airport Code": "", "Airport Code Number": 0, "IPS Name": "", "CDN Type": "", "Zone Name": "", "Region": "", "Parent Region": ""}, "geometry": {"type": "Point", "coordinates": [-38.907, -12.201]}}, {"type": "Feature", "properties": {"Provider": "Google", "Service Name": "ggcs", "URL": "https://peering.google.com/#/infrastructure", "City": "Ban Rai Phathana", "Country": "Thailand", "Status": "Active", "IP Version": "", "Hosting Provider": "", "C Number": "", "Airport Code": "", "Airport Code Number": 0, "IPS Name": "", "CDN Type": "", "Zone Name": "", "Region": "", "Parent Region": ""}, "geometry": {"type": "Point", "coordinates": [101.195, 16.677]}}, {"type": "Feature", "properties": {"Provider": "Google", "Service Name": "ggcs", "URL": "https://peering.google.com/#/infrastructure", "City": "Arkhangelsk Urban Okrug", "Country": "Russian Federation", "Status": "Active", "IP Version": "", "Hosting Provider": "", "C Number": "", "Airport Code": "", "Airport Code Number": 0, "IPS Name": "", "CDN Type": "", "Zone Name": "", "Region": "", "Parent Region": ""}, "geometry": {"type": "Point", "coordinates": [40.717, 64.6]}}, {"type": "Feature", "properties": {"Provider": "Google", "Service Name": "ggcs", "URL": "https://peering.google.com/#/infrastructure", "City": "Gaborone", "Country": "Botswana", "Status": "Active", "IP Version": "", "Hosting Provider": "", "C Number": "", "Airport Code": "", "Airport Code Number": 0, "IPS Name": "", "CDN Type": "", "Zone Name": "", "Region": "", "Parent Region": ""}, "geometry": {"type": "Point", "coordinates": [25.918, -24.555]}}, {"type": "Feature", "properties": {"Provider": "Google", "Service Name": "ggcs", "URL": "https://peering.google.com/#/infrastructure", "City": "Pamandzi", "Country": "France", "Status": "Active", "IP Version": "", "Hosting Provider": "", "C Number": "", "Airport Code": "", "Airport Code Number": 0, "IPS Name": "", "CDN Type": "", "Zone Name": "", "Region": "", "Parent Region": ""}, "geometry": {"type": "Point", "coordinates": [45.281, -12.807]}}, {"type": "Feature", "properties": {"Provider": "Google", "Service Name": "ggcs", "URL": "https://peering.google.com/#/infrastructure", "City": "Clarksdale", "Country": "United States", "Status": "Active", "IP Version": "", "Hosting Provider": "", "C Number": "", "Airport Code": "", "Airport Code Number": 0, "IPS Name": "", "CDN Type": "", "Zone Name": "", "Region": "", "Parent Region": ""}, "geometry": {"type": "Point", "coordinates": [-90.567, 34.2]}}, {"type": "Feature", "properties": {"Provider": "Google", "Service Name": "ggcs", "URL": "https://peering.google.com/#/infrastructure", "City": "Aberdeen City", "Country": "United Kingdom", "Status": "Active", "IP Version": "", "Hosting Provider": "", "C Number": "", "Airport Code": "", "Airport Code Number": 0, "IPS Name": "", "CDN Type": "", "Zone Name": "", "Region": "", "Parent Region": ""}, "geometry": {"type": "Point", "coordinates": [-2.2, 57.204]}}, {"type": "Feature", "properties": {"Provider": "Google", "Service Name": "ggcs", "URL": "https://peering.google.com/#/infrastructure", "City": "An Nh\u01a1n District", "Country": "Viet Nam", "Status": "Active", "IP Version": "", "Hosting Provider": "", "C Number": "", "Airport Code": "", "Airport Code Number": 0, "IPS Name": "", "CDN Type": "", "Zone Name": "", "Region": "", "Parent Region": ""}, "geometry": {"type": "Point", "coordinates": [109.043, 13.954]}}, {"type": "Feature", "properties": {"Provider": "Google", "Service Name": "ggcs", "URL": "https://peering.google.com/#/infrastructure", "City": "Thiruvananthapuram", "Country": "India", "Status": "Active", "IP Version": "", "Hosting Provider": "", "C Number": "", "Airport Code": "", "Airport Code Number": 0, "IPS Name": "", "CDN Type": "", "Zone Name": "", "Region": "", "Parent Region": ""}, "geometry": {"type": "Point", "coordinates": [76.92, 8.482]}}, {"type": "Feature", "properties": {"Provider": "Google", "Service Name": "ggcs", "URL": "https://peering.google.com/#/infrastructure", "City": "", "Country": "Brazil", "Status": "Active", "IP Version": "", "Hosting Provider": "", "C Number": "", "Airport Code": "", "Airport Code Number": 0, "IPS Name": "", "CDN Type": "", "Zone Name": "", "Region": "", "Parent Region": ""}, "geometry": {"type": "Point", "coordinates": [-48.357, -10.291]}}, {"type": "Feature", "properties": {"Provider": "Google", "Service Name": "ggcs", "URL": "https://peering.google.com/#/infrastructure", "City": "Timehri", "Country": "Guyana", "Status": "Active", "IP Version": "", "Hosting Provider": "", "C Number": "", "Airport Code": "", "Airport Code Number": 0, "IPS Name": "", "CDN Type": "", "Zone Name": "", "Region": "", "Parent Region": ""}, "geometry": {"type": "Point", "coordinates": [-58.254, 6.499]}}, {"type": "Feature", "properties": {"Provider": "Google", "Service Name": "ggcs", "URL": "https://peering.google.com/#/infrastructure", "City": "Ternopil", "Country": "Ukraine", "Status": "Active", "IP Version": "", "Hosting Provider": "", "C Number": "", "Airport Code": "", "Airport Code Number": 0, "IPS Name": "", "CDN Type": "", "Zone Name": "", "Region": "", "Parent Region": ""}, "geometry": {"type": "Point", "coordinates": [25.6, 49.567]}}, {"type": "Feature", "properties": {"Provider": "Google", "Service Name": "ggcs", "URL": "https://peering.google.com/#/infrastructure", "City": "Davao City", "Country": "Philippines", "Status": "Active", "IP Version": "", "Hosting Provider": "", "C Number": "", "Airport Code": "", "Airport Code Number": 0, "IPS Name": "", "CDN Type": "", "Zone Name": "", "Region": "", "Parent Region": ""}, "geometry": {"type": "Point", "coordinates": [125.646, 7.125]}}, {"type": "Feature", "properties": {"Provider": "Google", "Service Name": "ggcs", "URL": "https://peering.google.com/#/infrastructure", "City": "Mfou", "Country": "Cameroon", "Status": "Active", "IP Version": "", "Hosting Provider": "", "C Number": "", "Airport Code": "", "Airport Code Number": 0, "IPS Name": "", "CDN Type": "", "Zone Name": "", "Region": "", "Parent Region": ""}, "geometry": {"type": "Point", "coordinates": [11.553, 3.723]}}, {"type": "Feature", "properties": {"Provider": "Google", "Service Name": "ggcs", "URL": "https://peering.google.com/#/infrastructure", "City": "Mogadishu District", "Country": "Somalia", "Status": "Active", "IP Version": "", "Hosting Provider": "", "C Number": "", "Airport Code": "", "Airport Code Number": 0, "IPS Name": "", "CDN Type": "", "Zone Name": "", "Region": "", "Parent Region": ""}, "geometry": {"type": "Point", "coordinates": [45.305, 2.015]}}, {"type": "Feature", "properties": {"Provider": "Google", "Service Name": "ggcs", "URL": "https://peering.google.com/#/infrastructure", "City": "Montes Claros", "Country": "Brazil", "Status": "Active", "IP Version": "", "Hosting Provider": "", "C Number": "", "Airport Code": "", "Airport Code Number": 0, "IPS Name": "", "CDN Type": "", "Zone Name": "", "Region": "", "Parent Region": ""}, "geometry": {"type": "Point", "coordinates": [-43.819, -16.707]}}, {"type": "Feature", "properties": {"Provider": "Google", "Service Name": "ggcs", "URL": "https://peering.google.com/#/infrastructure", "City": "Manteca", "Country": "United States", "Status": "Active", "IP Version": "", "Hosting Provider": "", "C Number": "", "Airport Code": "", "Airport Code Number": 0, "IPS Name": "", "CDN Type": "", "Zone Name": "", "Region": "", "Parent Region": ""}, "geometry": {"type": "Point", "coordinates": [-121.238, 37.894]}}, {"type": "Feature", "properties": {"Provider": "Google", "Service Name": "ggcs", "URL": "https://peering.google.com/#/infrastructure", "City": "Speen", "Country": "United Kingdom", "Status": "Active", "IP Version": "", "Hosting Provider": "", "C Number": "", "Airport Code": "", "Airport Code Number": 0, "IPS Name": "", "CDN Type": "", "Zone Name": "", "Region": "", "Parent Region": ""}, "geometry": {"type": "Point", "coordinates": [-1.333, 51.417]}}, {"type": "Feature", "properties": {"Provider": "Google", "Service Name": "ggcs", "URL": "https://peering.google.com/#/infrastructure", "City": "Saga", "Country": "Japan", "Status": "Active", "IP Version": "", "Hosting Provider": "", "C Number": "", "Airport Code": "", "Airport Code Number": 0, "IPS Name": "", "CDN Type": "", "Zone Name": "", "Region": "", "Parent Region": ""}, "geometry": {"type": "Point", "coordinates": [130.302, 33.15]}}, {"type": "Feature", "properties": {"Provider": "Google", "Service Name": "ggcs", "URL": "https://peering.google.com/#/infrastructure", "City": "Teixeira de Freitas", "Country": "Brazil", "Status": "Active", "IP Version": "", "Hosting Provider": "", "C Number": "", "Airport Code": "", "Airport Code Number": 0, "IPS Name": "", "CDN Type": "", "Zone Name": "", "Region": "", "Parent Region": ""}, "geometry": {"type": "Point", "coordinates": [-39.669, -17.524]}}, {"type": "Feature", "properties": {"Provider": "Google", "Service Name": "ggcs", "URL": "https://peering.google.com/#/infrastructure", "City": "Gulfport", "Country": "United States", "Status": "Active", "IP Version": "", "Hosting Provider": "", "C Number": "", "Airport Code": "", "Airport Code Number": 0, "IPS Name": "", "CDN Type": "", "Zone Name": "", "Region": "", "Parent Region": ""}, "geometry": {"type": "Point", "coordinates": [-89.07, 30.407]}}, {"type": "Feature", "properties": {"Provider": "Google", "Service Name": "ggcs", "URL": "https://peering.google.com/#/infrastructure", "City": "Iowa City", "Country": "United States", "Status": "Active", "IP Version": "", "Hosting Provider": "", "C Number": "", "Airport Code": "", "Airport Code Number": 0, "IPS Name": "", "CDN Type": "", "Zone Name": "", "Region": "", "Parent Region": ""}, "geometry": {"type": "Point", "coordinates": [-91.533, 41.667]}}, {"type": "Feature", "properties": {"Provider": "Google", "Service Name": "ggcs", "URL": "https://peering.google.com/#/infrastructure", "City": "Aragua\u00edna", "Country": "Brazil", "Status": "Active", "IP Version": "", "Hosting Provider": "", "C Number": "", "Airport Code": "", "Airport Code Number": 0, "IPS Name": "", "CDN Type": "", "Zone Name": "", "Region": "", "Parent Region": ""}, "geometry": {"type": "Point", "coordinates": [-48.233, -7.217]}}, {"type": "Feature", "properties": {"Provider": "Google", "Service Name": "ggcs", "URL": "https://peering.google.com/#/infrastructure", "City": "Per\u00edmetro Urbano C\u00facuta", "Country": "Colombia", "Status": "Active", "IP Version": "", "Hosting Provider": "", "C Number": "", "Airport Code": "", "Airport Code Number": 0, "IPS Name": "", "CDN Type": "", "Zone Name": "", "Region": "", "Parent Region": ""}, "geometry": {"type": "Point", "coordinates": [-72.512, 7.928]}}, {"type": "Feature", "properties": {"Provider": "Google", "Service Name": "ggcs", "URL": "https://peering.google.com/#/infrastructure", "City": "Nuevo Laredo", "Country": "Mexico", "Status": "Active", "IP Version": "", "Hosting Provider": "", "C Number": "", "Airport Code": "", "Airport Code Number": 0, "IPS Name": "", "CDN Type": "", "Zone Name": "", "Region": "", "Parent Region": ""}, "geometry": {"type": "Point", "coordinates": [-99.571, 27.444]}}, {"type": "Feature", "properties": {"Provider": "Google", "Service Name": "ggcs", "URL": "https://peering.google.com/#/infrastructure", "City": "Viehhausen", "Country": "Austria", "Status": "Active", "IP Version": "", "Hosting Provider": "", "C Number": "", "Airport Code": "", "Airport Code Number": 0, "IPS Name": "", "CDN Type": "", "Zone Name": "", "Region": "", "Parent Region": ""}, "geometry": {"type": "Point", "coordinates": [13.004, 47.793]}}, {"type": "Feature", "properties": {"Provider": "Google", "Service Name": "ggcs", "URL": "https://peering.google.com/#/infrastructure", "City": "arrondissement de Menara \u0627\u0644\u0645\u0646\u0627\u0631\u0629", "Country": "Morocco", "Status": "Active", "IP Version": "", "Hosting Provider": "", "C Number": "", "Airport Code": "", "Airport Code Number": 0, "IPS Name": "", "CDN Type": "", "Zone Name": "", "Region": "", "Parent Region": ""}, "geometry": {"type": "Point", "coordinates": [-8.036, 31.607]}}, {"type": "Feature", "properties": {"Provider": "Google", "Service Name": "ggcs", "URL": "https://peering.google.com/#/infrastructure", "City": "Mossor\u00f3", "Country": "Brazil", "Status": "Active", "IP Version": "", "Hosting Provider": "", "C Number": "", "Airport Code": "", "Airport Code Number": 0, "IPS Name": "", "CDN Type": "", "Zone Name": "", "Region": "", "Parent Region": ""}, "geometry": {"type": "Point", "coordinates": [-37.333, -5.183]}}, {"type": "Feature", "properties": {"Provider": "Google", "Service Name": "ggcs", "URL": "https://peering.google.com/#/infrastructure", "City": "Vitrolles", "Country": "France", "Status": "Active", "IP Version": "", "Hosting Provider": "", "C Number": "", "Airport Code": "", "Airport Code Number": 0, "IPS Name": "", "CDN Type": "", "Zone Name": "", "Region": "", "Parent Region": ""}, "geometry": {"type": "Point", "coordinates": [5.215, 43.437]}}, {"type": "Feature", "properties": {"Provider": "Google", "Service Name": "ggcs", "URL": "https://peering.google.com/#/infrastructure", "City": "London", "Country": "United Kingdom", "Status": "Active", "IP Version": "", "Hosting Provider": "", "C Number": "", "Airport Code": "", "Airport Code Number": 0, "IPS Name": "", "CDN Type": "", "Zone Name": "", "Region": "", "Parent Region": ""}, "geometry": {"type": "Point", "coordinates": [-0.461, 51.477]}}, {"type": "Feature", "properties": {"Provider": "Google", "Service Name": "ggcs", "URL": "https://peering.google.com/#/infrastructure", "City": "", "Country": "Netherlands", "Status": "Active", "IP Version": "", "Hosting Provider": "", "C Number": "", "Airport Code": "", "Airport Code Number": 0, "IPS Name": "", "CDN Type": "", "Zone Name": "", "Region": "", "Parent Region": ""}, "geometry": {"type": "Point", "coordinates": [4.764, 52.308]}}, {"type": "Feature", "properties": {"Provider": "Google", "Service Name": "ggcs", "URL": "https://peering.google.com/#/infrastructure", "City": "Ban Pa Daeng", "Country": "Thailand", "Status": "Active", "IP Version": "", "Hosting Provider": "", "C Number": "", "Airport Code": "", "Airport Code Number": 0, "IPS Name": "", "CDN Type": "", "Zone Name": "", "Region": "", "Parent Region": ""}, "geometry": {"type": "Point", "coordinates": [99.883, 19.952]}}, {"type": "Feature", "properties": {"Provider": "Google", "Service Name": "ggcs", "URL": "https://peering.google.com/#/infrastructure", "City": "Taoyuan City", "Country": "Taiwan, Province of China", "Status": "Active", "IP Version": "", "Hosting Provider": "", "C Number": "", "Airport Code": "", "Airport Code Number": 0, "IPS Name": "", "CDN Type": "", "Zone Name": "", "Region": "", "Parent Region": ""}, "geometry": {"type": "Point", "coordinates": [121.233, 25.078]}}, {"type": "Feature", "properties": {"Provider": "Google", "Service Name": "ggcs", "URL": "https://peering.google.com/#/infrastructure", "City": "Kaluga", "Country": "Russian Federation", "Status": "Active", "IP Version": "", "Hosting Provider": "", "C Number": "", "Airport Code": "", "Airport Code Number": 0, "IPS Name": "", "CDN Type": "", "Zone Name": "", "Region": "", "Parent Region": ""}, "geometry": {"type": "Point", "coordinates": [36.372, 54.549]}}, {"type": "Feature", "properties": {"Provider": "Google", "Service Name": "ggcs", "URL": "https://peering.google.com/#/infrastructure", "City": "", "Country": "Kuwait", "Status": "Active", "IP Version": "", "Hosting Provider": "", "C Number": "", "Airport Code": "", "Airport Code Number": 0, "IPS Name": "", "CDN Type": "", "Zone Name": "", "Region": "", "Parent Region": ""}, "geometry": {"type": "Point", "coordinates": [47.969, 29.227]}}, {"type": "Feature", "properties": {"Provider": "Google", "Service Name": "ggcs", "URL": "https://peering.google.com/#/infrastructure", "City": "Jaipur Municipal Corporation", "Country": "India", "Status": "Active", "IP Version": "", "Hosting Provider": "", "C Number": "", "Airport Code": "", "Airport Code Number": 0, "IPS Name": "", "CDN Type": "", "Zone Name": "", "Region": "", "Parent Region": ""}, "geometry": {"type": "Point", "coordinates": [75.812, 26.824]}}, {"type": "Feature", "properties": {"Provider": "Google", "Service Name": "ggcs", "URL": "https://peering.google.com/#/infrastructure", "City": "Manchester", "Country": "United Kingdom", "Status": "Active", "IP Version": "", "Hosting Provider": "", "C Number": "", "Airport Code": "", "Airport Code Number": 0, "IPS Name": "", "CDN Type": "", "Zone Name": "", "Region": "", "Parent Region": ""}, "geometry": {"type": "Point", "coordinates": [-2.275, 53.354]}}, {"type": "Feature", "properties": {"Provider": "Google", "Service Name": "ggcs", "URL": "https://peering.google.com/#/infrastructure", "City": "Jeddah", "Country": "Saudi Arabia", "Status": "Active", "IP Version": "", "Hosting Provider": "", "C Number": "", "Airport Code": "", "Airport Code Number": 0, "IPS Name": "", "CDN Type": "", "Zone Name": "", "Region": "", "Parent Region": ""}, "geometry": {"type": "Point", "coordinates": [39.157, 21.679]}}, {"type": "Feature", "properties": {"Provider": "Google", "Service Name": "ggcs", "URL": "https://peering.google.com/#/infrastructure", "City": "Vila Nova da Telha", "Country": "Portugal", "Status": "Active", "IP Version": "", "Hosting Provider": "", "C Number": "", "Airport Code": "", "Airport Code Number": 0, "IPS Name": "", "CDN Type": "", "Zone Name": "", "Region": "", "Parent Region": ""}, "geometry": {"type": "Point", "coordinates": [-8.678, 41.236]}}, {"type": "Feature", "properties": {"Provider": "Google", "Service Name": "ggcs", "URL": "https://peering.google.com/#/infrastructure", "City": "Guatemala City", "Country": "Guatemala", "Status": "Active", "IP Version": "", "Hosting Provider": "", "C Number": "", "Airport Code": "", "Airport Code Number": 0, "IPS Name": "", "CDN Type": "", "Zone Name": "", "Region": "", "Parent Region": ""}, "geometry": {"type": "Point", "coordinates": [-90.527, 14.584]}}, {"type": "Feature", "properties": {"Provider": "Google", "Service Name": "ggcs", "URL": "https://peering.google.com/#/infrastructure", "City": "Araraquara", "Country": "Brazil", "Status": "Active", "IP Version": "", "Hosting Provider": "", "C Number": "", "Airport Code": "", "Airport Code Number": 0, "IPS Name": "", "CDN Type": "", "Zone Name": "", "Region": "", "Parent Region": ""}, "geometry": {"type": "Point", "coordinates": [-48.133, -21.812]}}, {"type": "Feature", "properties": {"Provider": "Google", "Service Name": "ggcs", "URL": "https://peering.google.com/#/infrastructure", "City": "", "Country": "Madagascar", "Status": "Active", "IP Version": "", "Hosting Provider": "", "C Number": "", "Airport Code": "", "Airport Code Number": 0, "IPS Name": "", "CDN Type": "", "Zone Name": "", "Region": "", "Parent Region": ""}, "geometry": {"type": "Point", "coordinates": [47.479, -18.797]}}, {"type": "Feature", "properties": {"Provider": "Google", "Service Name": "ggcs", "URL": "https://peering.google.com/#/infrastructure", "City": "", "Country": "Saudi Arabia", "Status": "Active", "IP Version": "", "Hosting Provider": "", "C Number": "", "Airport Code": "", "Airport Code Number": 0, "IPS Name": "", "CDN Type": "", "Zone Name": "", "Region": "", "Parent Region": ""}, "geometry": {"type": "Point", "coordinates": [46.699, 24.958]}}, {"type": "Feature", "properties": {"Provider": "Google", "Service Name": "ggcs", "URL": "https://peering.google.com/#/infrastructure", "City": "Machelen", "Country": "Belgium", "Status": "Active", "IP Version": "", "Hosting Provider": "", "C Number": "", "Airport Code": "", "Airport Code Number": 0, "IPS Name": "", "CDN Type": "", "Zone Name": "", "Region": "", "Parent Region": ""}, "geometry": {"type": "Point", "coordinates": [4.484, 50.901]}}, {"type": "Feature", "properties": {"Provider": "Google", "Service Name": "ggcs", "URL": "https://peering.google.com/#/infrastructure", "City": "Chicago", "Country": "United States", "Status": "Active", "IP Version": "", "Hosting Provider": "", "C Number": "", "Airport Code": "", "Airport Code Number": 0, "IPS Name": "", "CDN Type": "", "Zone Name": "", "Region": "", "Parent Region": ""}, "geometry": {"type": "Point", "coordinates": [-87.905, 41.979]}}, {"type": "Feature", "properties": {"Provider": "Google", "Service Name": "ggcs", "URL": "https://peering.google.com/#/infrastructure", "City": "Ciudad Ju\u00e1rez", "Country": "Mexico", "Status": "Active", "IP Version": "", "Hosting Provider": "", "C Number": "", "Airport Code": "", "Airport Code Number": 0, "IPS Name": "", "CDN Type": "", "Zone Name": "", "Region": "", "Parent Region": ""}, "geometry": {"type": "Point", "coordinates": [-106.429, 31.636]}}, {"type": "Feature", "properties": {"Provider": "Google", "Service Name": "ggcs", "URL": "https://peering.google.com/#/infrastructure", "City": "Busan", "Country": "Korea, Republic of", "Status": "Active", "IP Version": "", "Hosting Provider": "", "C Number": "", "Airport Code": "", "Airport Code Number": 0, "IPS Name": "", "CDN Type": "", "Zone Name": "", "Region": "", "Parent Region": ""}, "geometry": {"type": "Point", "coordinates": [128.942, 35.177]}}, {"type": "Feature", "properties": {"Provider": "Google", "Service Name": "ggcs", "URL": "https://peering.google.com/#/infrastructure", "City": "Corpus Christi", "Country": "United States", "Status": "Active", "IP Version": "", "Hosting Provider": "", "C Number": "", "Airport Code": "", "Airport Code Number": 0, "IPS Name": "", "CDN Type": "", "Zone Name": "", "Region": "", "Parent Region": ""}, "geometry": {"type": "Point", "coordinates": [-97.501, 27.77]}}, {"type": "Feature", "properties": {"Provider": "Google", "Service Name": "ggcs", "URL": "https://peering.google.com/#/infrastructure", "City": "", "Country": "Argentina", "Status": "Active", "IP Version": "", "Hosting Provider": "", "C Number": "", "Airport Code": "", "Airport Code Number": 0, "IPS Name": "", "CDN Type": "", "Zone Name": "", "Region": "", "Parent Region": ""}, "geometry": {"type": "Point", "coordinates": [-68.793, -32.832]}}, {"type": "Feature", "properties": {"Provider": "Google", "Service Name": "ggcs", "URL": "https://peering.google.com/#/infrastructure", "City": "Luton", "Country": "United Kingdom", "Status": "Active", "IP Version": "", "Hosting Provider": "", "C Number": "", "Airport Code": "", "Airport Code Number": 0, "IPS Name": "", "CDN Type": "", "Zone Name": "", "Region": "", "Parent Region": ""}, "geometry": {"type": "Point", "coordinates": [-0.368, 51.875]}}, {"type": "Feature", "properties": {"Provider": "Google", "Service Name": "ggcs", "URL": "https://peering.google.com/#/infrastructure", "City": "Udon Thani", "Country": "Thailand", "Status": "Active", "IP Version": "", "Hosting Provider": "", "C Number": "", "Airport Code": "", "Airport Code Number": 0, "IPS Name": "", "CDN Type": "", "Zone Name": "", "Region": "", "Parent Region": ""}, "geometry": {"type": "Point", "coordinates": [102.788, 17.386]}}, {"type": "Feature", "properties": {"Provider": "Google", "Service Name": "ggcs", "URL": "https://peering.google.com/#/infrastructure", "City": "Los Angeles", "Country": "United States", "Status": "Active", "IP Version": "", "Hosting Provider": "", "C Number": "", "Airport Code": "", "Airport Code Number": 0, "IPS Name": "", "CDN Type": "", "Zone Name": "", "Region": "", "Parent Region": ""}, "geometry": {"type": "Point", "coordinates": [-118.25, 33.783]}}, {"type": "Feature", "properties": {"Provider": "Google", "Service Name": "ggcs", "URL": "https://peering.google.com/#/infrastructure", "City": "Lampang", "Country": "Thailand", "Status": "Active", "IP Version": "", "Hosting Provider": "", "C Number": "", "Airport Code": "", "Airport Code Number": 0, "IPS Name": "", "CDN Type": "", "Zone Name": "", "Region": "", "Parent Region": ""}, "geometry": {"type": "Point", "coordinates": [99.504, 18.272]}}, {"type": "Feature", "properties": {"Provider": "Google", "Service Name": "ggcs", "URL": "https://peering.google.com/#/infrastructure", "City": "Nashville-Davidson", "Country": "United States", "Status": "Active", "IP Version": "", "Hosting Provider": "", "C Number": "", "Airport Code": "", "Airport Code Number": 0, "IPS Name": "", "CDN Type": "", "Zone Name": "", "Region": "", "Parent Region": ""}, "geometry": {"type": "Point", "coordinates": [-86.678, 36.124]}}, {"type": "Feature", "properties": {"Provider": "Google", "Service Name": "ggcs", "URL": "https://peering.google.com/#/infrastructure", "City": "Florian\u00f3polis", "Country": "Brazil", "Status": "Active", "IP Version": "", "Hosting Provider": "", "C Number": "", "Airport Code": "", "Airport Code Number": 0, "IPS Name": "", "CDN Type": "", "Zone Name": "", "Region": "", "Parent Region": ""}, "geometry": {"type": "Point", "coordinates": [-48.547, -27.671]}}, {"type": "Feature", "properties": {"Provider": "Google", "Service Name": "ggcs", "URL": "https://peering.google.com/#/infrastructure", "City": "", "Country": "Iraq", "Status": "Active", "IP Version": "", "Hosting Provider": "", "C Number": "", "Airport Code": "", "Airport Code Number": 0, "IPS Name": "", "CDN Type": "", "Zone Name": "", "Region": "", "Parent Region": ""}, "geometry": {"type": "Point", "coordinates": [43.963, 36.238]}},