Provider,Service Name,URL,City,Country,Status,IP Version,Hosting Provider,C Number,Airport Code,Airport Code Number,ISP Name,CDN Type,Zone Name,Region,Parent Region,Latitude,Longitude
Netflix,Open Connect Appliance,https://openconnect.netflix.com/en_gb/appliances/,London,United Kingdom,Active,IPv6,,c033,LHR,1,Virginmedia,ISP,,,,51.467,-0.465
Netflix,Open Connect Appliance,https://openconnect.netflix.com/en_gb/appliances/,Seattle,United States,Active,IPv4,CenturyLink Communications,c003,SEA,2,Centurylink,ISP,,,,47.45,-122.308
Netflix,Open Connect Appliance,https://openconnect.netflix.com/en_gb/appliances/,Madrid,Spain,Active,IPv4,Netflix Streaming Services Inc.,c029,MAD,1,,IXP,,,,40.498,-3.563
Netflix,Open Connect Appliance,https://openconnect.netflix.com/en_gb/appliances/,Amsterdam,Netherlands,Active,IPv4,Netflix Streaming Services Inc.,c078,AMS,1,,IXP,,,,52.306,4.761
Netflix,Open Connect Appliance,https://openconnect.netflix.com/en_gb/appliances/,Dallas-Fort Worth,United States,Active,IPv4,Netflix Streaming Services Inc.,c345,DFW,1,,IXP,,,,32.898,-97.037
Netflix,Open Connect Appliance,https://openconnect.netflix.com/en_gb/appliances/,San Jose,United States,Active,IPv4,Netflix Streaming Services Inc.,c002,SJC,6,,IXP,,,,37.359,-121.932
Netflix,Open Connect Appliance,https://openconnect.netflix.com/en_gb/appliances/,Halifax,Canada,Active,IPv4,Netflix Streaming Services Inc.,c014,YHZ,1,Bellaliant,ISP,,,,44.881,-63.508
Netflix,Open Connect Appliance,https://openconnect.netflix.com/en_gb/appliances/,Lafayette,United States,Active,IPv4,,c001,LFT,1,Suddenlink,ISP,,,,30.207,-91.986
Netflix,Open Connect Appliance,https://openconnect.netflix.com/en_gb/appliances/,Naga,Philippines,Active,IPv4,,c001,WNP,1,Convergeict,ISP,,,,13.589,123.274
Netflix,Open Connect Appliance,https://openconnect.netflix.com/en_gb/appliances/,Chiang Mai,Thailand,Active,IPv4,,c002,CNX,1,Trueinternet,ISP,,,,18.771,98.967
Netflix,Open Connect Appliance,https://openconnect.netflix.com/en_gb/appliances/,Dublin,Ireland,Active,IPv4,,c002,DUB,1,Btireland,ISP,,,,53.418,-6.273
Netflix,Open Connect Appliance,https://openconnect.netflix.com/en_gb/appliances/,Fargo,United States,Active,IPv4,,c002,FAR,1,Dcn,ISP,,,,46.917,-96.819
Netflix,Open Connect Appliance,https://openconnect.netflix.com/en_gb/appliances/,Vienna,Austria,Active,IPv4,,c002,VIE,1,,IXP,,,,48.108,16.568
Netflix,Open Connect Appliance,https://openconnect.netflix.com/en_gb/appliances/,Phoenix,United States,Active,IPv4,,c004,PHX,1,Centurylink,ISP,,,,33.438,-112.009
Netflix,Open Connect Appliance,https://openconnect.netflix.com/en_gb/appliances/,Dusseldorf,Germany,Active,IPv4,,c010,DUS,1,,IXP,,,,51.289,6.766
Netflix,Open Connect Appliance,https://openconnect.netflix.com/en_gb/appliances/,Ezeiza,Argentina,Active,IPv4,,c010,EZE,4,Prima,ISP,,,,-34.822,-58.535
Netflix,Open Connect Appliance,https://openconnect.netflix.com/en_gb/appliances/,Newark,United States,Active,IPv4,,c052,EWR,2,,IXP,,,,40.694,-74.167
Netflix,Open Connect Appliance,https://openconnect.netflix.com/en_gb/appliances/,Stockholm,Sweden,Active,IPv4,,c055,ARN,1,,IXP,,,,59.656,17.923
Netflix,Open Connect Appliance,https://openconnect.netflix.com/en_gb/appliances/,Dallas-Fort Worth,United States,Active,IPv4,,c117,DFW,3,,IXP,,,,32.897,-97.038
Netflix,Open Connect Appliance,https://openconnect.netflix.com/en_gb/appliances/,Miami,United States,Active,IPv4,,c119,MIA,3,,IXP,,,,25.794,-80.29
Netflix,Open Connect Appliance,https://openconnect.netflix.com/en_gb/appliances/,San Jose,United States,Active,IPv4,,c194,SJC,2,,IXP,,,,37.361,-121.93
Netflix,Open Connect Appliance,https://openconnect.netflix.com/en_gb/appliances/,Miami,United States,Active,IPv4,,c201,MIA,3,,IXP,,,,25.797,-80.287
Netflix,Open Connect Appliance,https://openconnect.netflix.com/en_gb/appliances/,Dallas-Fort Worth,United States,Active,IPv4,,c230,DFW,1,,IXP,,,,32.901,-97.034
Netflix,Open Connect Appliance,https://openconnect.netflix.com/en_gb/appliances/,Paris,France,Active,IPv6,,c009,CDG,1,,IXP,,,,49.014,2.551
Netflix,Open Connect Appliance,https://openconnect.netflix.com/en_gb/appliances/,Miami,United States,Active,IPv6,,c200,MIA,3,,IXP,,,,25.797,-80.287
Netflix,Open Connect Appliance,https://openconnect.netflix.com/en_gb/appliances/,Chicago,United States,Active,IPv6,,c407,ORD,1,,IXP,,,,41.982,-87.901
Netflix,Open Connect Appliance,https://openconnect.netflix.com/en_gb/appliances/,San Jose,United States,Active,IPv6,,c610,SJC,2,,IXP,,,,37.362,-121.93
Netflix,Open Connect Appliance,https://openconnect.netflix.com/en_gb/appliances/,Geneva,Switzerland,Active,IPv4,,c001,GVA,1,Swisscom,ISP,,,,46.241,6.112
Netflix,Open Connect Appliance,https://openconnect.netflix.com/en_gb/appliances/,Perth,Australia,Active,IPv4,,c001,PER,1,Vodafonehutchison,ISP,,,,-31.944,115.963
Netflix,Open Connect Appliance,https://openconnect.netflix.com/en_gb/appliances/,Belo Horizonte,Brazil,Active,IPv4,,c001,PLU,1,Netfacil,ISP,,,,-19.853,-43.953
Netflix,Open Connect Appliance,https://openconnect.netflix.com/en_gb/appliances/,Bauru,Brazil,Active,IPv4,,c002,BAU,1,Txfiber,ISP,,,,-22.344,-49.052
Netflix,Open Connect Appliance,https://openconnect.netflix.com/en_gb/appliances/,Dublin,Ireland,Active,IPv4,,c003,DUB,2,Btireland,ISP,,,,53.418,-6.273
Netflix,Open Connect Appliance,https://openconnect.netflix.com/en_gb/appliances/,Belo Horizonte,Brazil,Active,IPv4,,c004,PLU,1,Century br,ISP,,,,-19.853,-43.953
Netflix,Open Connect Appliance,https://openconnect.netflix.com/en_gb/appliances/,Santiago,Chile,Active,IPv4,,c004,SCL,1,Telxius,ISP,,,,-33.392,-70.784
Netflix,Open Connect Appliance,https://openconnect.netflix.com/en_gb/appliances/,Brussels,Belgium,Active,IPv4,,c023,BRU,2,Proximus,ISP,,,,50.904,4.487
Netflix,Open Connect Appliance,https://openconnect.netflix.com/en_gb/appliances/,Hebron,United States,Active,IPv6,,c001,CVG,7,Cinbell,ISP,,,,39.045,-84.672
Netflix,Open Connect Appliance,https://openconnect.netflix.com/en_gb/appliances/,Ribeirao Preto,Brazil,Active,IPv6,,c003,RAO,1,Algar,ISP,,,,-21.137,-47.778
Netflix,Open Connect Appliance,https://openconnect.netflix.com/en_gb/appliances/,Lisbon,Portugal,Active,IPv6,,c007,LIS,1,Meo,ISP,,,,38.785,-9.133
Netflix,Open Connect Appliance,https://openconnect.netflix.com/en_gb/appliances/,Vancouver,Canada,Active,IPv4,Shaw Communications Inc.,c009,YVR,1,Shaw,ISP,,,,49.195,-123.183
Netflix,Open Connect Appliance,https://openconnect.netflix.com/en_gb/appliances/,Pittsburgh,United States,Active,IPv4,Netflix Streaming Services Inc.,c016,PIT,2,,IXP,,,,40.49,-80.235
Netflix,Open Connect Appliance,https://openconnect.netflix.com/en_gb/appliances/,Seattle,United States,Active,IPv4,Netflix Streaming Services Inc.,c020,SEA,3,,IXP,,,,47.449,-122.309
Netflix,Open Connect Appliance,https://openconnect.netflix.com/en_gb/appliances/,Chicago,United States,Active,IPv6,Netflix Streaming Services Inc.,c070,ORD,3,,IXP,,,,41.979,-87.904
Netflix,Open Connect Appliance,https://openconnect.netflix.com/en_gb/appliances/,Campos Dos Goytacazes,Brazil,Active,IPv4,K2 Telecom e Multimidia LTDA ME,c002,CAW,2,K2telecom,ISP,,,,-21.698,-41.301
Netflix,Open Connect Appliance,https://openconnect.netflix.com/en_gb/appliances/,Sao Paulo,Brazil,Active,IPv4,Telium Telecomunicacoes Ltda,c002,CGH,1,Telium,ISP,,,,-23.623,-46.654
Netflix,Open Connect Appliance,https://openconnect.netflix.com/en_gb/appliances/,Campos Dos Goytacazes,Brazil,Active,IPv6,K2 Telecom e Multimidia LTDA ME,c002,CAW,2,K2telecom,ISP,,,,-21.703,-41.306
Netflix,Open Connect Appliance,https://openconnect.netflix.com/en_gb/appliances/,Adelaide,Australia,Active,IPv6,Telstra Corporation Ltd,c004,ADL,1,Telstra,ISP,,,,-34.943,138.533
Netflix,Open Connect Appliance,https://openconnect.netflix.com/en_gb/appliances/,Brussels,Belgium,Active,IPv6,,c008,BRU,1,Proximus,ISP,,,,50.897,4.48
Netflix,Open Connect Appliance,https://openconnect.netflix.com/en_gb/appliances/,Glasgow,United Kingdom,Active,IPv6,,c010,GLA,1,Sky,ISP,,,,55.875,-4.43
Netflix,Open Connect Appliance,https://openconnect.netflix.com/en_gb/appliances/,Guadalajara,Mexico,Active,IPv6,,c011,GDL,1,Totalplay,ISP,,,,20.522,-103.31
Netflix,Open Connect Appliance,https://openconnect.netflix.com/en_gb/appliances/,London,United Kingdom,Active,IPv6,,c034,LHR,5,,IXP,,,,51.474,-0.459
Netflix,Open Connect Appliance,https://openconnect.netflix.com/en_gb/appliances/,San Jose,United States,Active,IPv6,,c113,SJC,2,,IXP,,,,37.358,-121.933
Netflix,Open Connect Appliance,https://openconnect.netflix.com/en_gb/appliances/,San Jose,United States,Active,IPv6,,c123,SJC,2,,IXP,,,,37.364,-121.928
Netflix,Open Connect Appliance,https://openconnect.netflix.com/en_gb/appliances/,Bemidji,United States,Active,IPv4,Paul Bunyan Communications,c001,BJI,1,Paulbunyan,ISP,,,,47.505,-94.938
Netflix,Open Connect Appliance,https://openconnect.netflix.com/en_gb/appliances/,Recife,Brazil,Active,IPv4,Fortel Fortaleza Telecomunicacoes Ltda,c003,REC,1,Wirelink,ISP,,,,-8.126,-34.924
Netflix,Open Connect Appliance,https://openconnect.netflix.com/en_gb/appliances/,Paris,France,Active,IPv4,Netflix Streaming Services Inc.,c156,CDG,1,,IXP,,,,49.015,2.552
Netflix,Open Connect Appliance,https://openconnect.netflix.com/en_gb/appliances/,Dallas-Fort Worth,United States,Active,IPv4,Netflix Streaming Services Inc.,c401,DFW,1,,IXP,,,,32.893,-97.042
Netflix,Open Connect Appliance,https://openconnect.netflix.com/en_gb/appliances/,Goiania,Brazil,Active,IPv4,TECHNET NETWORKS LTDA,c001,GYN,1,Technet go,ISP,,,,-16.63,-49.218
Netflix,Open Connect Appliance,https://openconnect.netflix.com/en_gb/appliances/,Pelotas,Brazil,Active,IPv4,Osirnet Info Telecom Ltda.,c001,PET,2,Osirnet,ISP,,,,-31.714,-52.324
Netflix,Open Connect Appliance,https://openconnect.netflix.com/en_gb/appliances/,Recife,Brazil,Active,IPv4,PEDRO ADRIANO SOUTO MAIOR VELOSO - ME,c001,REC,1,Evolutionet,ISP,,,,-8.126,-34.923
Netflix,Open Connect Appliance,https://openconnect.netflix.com/en_gb/appliances/,Pierre,United States,Active,IPv4,SOUTH DAKOTA NETWORK,c002,PIR,1,Sdn,ISP,,,,44.387,-100.282
Netflix,Open Connect Appliance,https://openconnect.netflix.com/en_gb/appliances/,Belo Horizonte,Brazil,Active,IPv4,TELEFONICA BRASIL S.A,c002,PLU,1,Telefonica br,ISP,,,,-19.852,-43.951
Netflix,Open Connect Appliance,https://openconnect.netflix.com/en_gb/appliances/,Ribeirao Preto,Brazil,Active,IPv4,CLARO S.A.,c002,RAO,4,Claro br net,ISP,,,,-21.141,-47.781
Netflix,Open Connect Appliance,https://openconnect.netflix.com/en_gb/appliances/,Santarem,Brazil,Active,IPv4,AMAZONET TELECOMUNICACOES LTDA,c002,STM,1,Amazonnet,ISP,,,,-2.423,-54.784
Netflix,Open Connect Appliance,https://openconnect.netflix.com/en_gb/appliances/,Campinas,Brazil,Active,IPv4,CLARO S.A.,c004,VCP,1,Claro br net,ISP,,,,-23.006,-47.133
Netflix,Open Connect Appliance,https://openconnect.netflix.com/en_gb/appliances/,Bogota,Colombia,Active,IPv4,Telmex Colombia S.A.,c013,BOG,6,Claro co,ISP,,,,4.706,-74.143
Netflix,Open Connect Appliance,https://openconnect.netflix.com/en_gb/appliances/,Quito,Ecuador,Active,IPv6,CORPORACION NACIONAL DE TELECOMUNICACIONES - CNT EP,c001,UIO,6,Cnt,ISP,,,,-0.125,-78.353
Netflix,Open Connect Appliance,https://openconnect.netflix.com/en_gb/appliances/,Goiania,Brazil,Active,IPv6,G8 NETWORKS LTDA,c003,GYN,1,G8networks,ISP,,,,-16.63,-49.219
Netflix,Open Connect Appliance,https://openconnect.netflix.com/en_gb/appliances/,London,United Kingdom,Active,IPv6,BTnet UK Regional network,c004,LHR,4,Bt,ISP,,,,51.467,-0.466
Netflix,Open Connect Appliance,https://openconnect.netflix.com/en_gb/appliances/,London,Canada,Active,IPv6,Start Communications,c005,YXU,1,Start,ISP,,,,43.034,-81.155
Netflix,Open Connect Appliance,https://openconnect.netflix.com/en_gb/appliances/,Denver,United States,Active,IPv6,CenturyLink Communications,c011,DEN,1,Centurylink,ISP,,,,39.863,-104.671
Netflix,Open Connect Appliance,https://openconnect.netflix.com/en_gb/appliances/,Las Vegas,United States,Active,IPv6,Netflix Streaming Services Inc.,c014,LAS,1,,IXP,,,,36.076,-115.156
Netflix,Open Connect Appliance,https://openconnect.netflix.com/en_gb/appliances/,Atlanta,United States,Active,IPv6,Netflix Streaming Services Inc.,c047,ATL,4,,IXP,,,,33.635,-84.43
Netflix,Open Connect Appliance,https://openconnect.netflix.com/en_gb/appliances/,London,United Kingdom,Active,IPv6,Netflix Streaming Services Inc.,c084,LHR,4,,IXP,,,,51.467,-0.465
Netflix,Open Connect Appliance,https://openconnect.netflix.com/en_gb/appliances/,Pune,India,Active,IPv4,Tikona Infinet Ltd.,c001,PNQ,1,Tikona,ISP,,,,18.578,73.915
Netflix,Open Connect Appliance,https://openconnect.netflix.com/en_gb/appliances/,Melbourne,Australia,Active,IPv4,Western Australian Internet Association,c002,MEL,1,Waia,ISP,,,,-37.676,144.841
Netflix,Open Connect Appliance,https://openconnect.netflix.com/en_gb/appliances/,Melbourne,Australia,Active,IPv4,Microplex PTY LTD,c007,MEL,1,Optus,ISP,,,,-37.677,144.839
Netflix,Open Connect Appliance,https://openconnect.netflix.com/en_gb/appliances/,Los Angeles,United States,Active,IPv4,Netflix Streaming Services Inc.,c041,LAX,9,,IXP,,,,33.947,-118.404
Netflix,Open Connect Appliance,https://openconnect.netflix.com/en_gb/appliances/,Atlanta,United States,Active,IPv4,Netflix Streaming Services Inc.,c047,ATL,4,,IXP,,,,33.641,-84.424
Netflix,Open Connect Appliance,https://openconnect.netflix.com/en_gb/appliances/,Dallas-Fort Worth,United States,Active,IPv4,Netflix Streaming Services Inc.,c387,DFW,1,,IXP,,,,32.894,-97.041
Netflix,Open Connect Appliance,https://openconnect.netflix.com/en_gb/appliances/,Buenos Aires,Argentina,Active,IPv4,,c001,AEP,1,Telxius,ISP,,,,-34.559,-58.416
Netflix,Open Connect Appliance,https://openconnect.netflix.com/en_gb/appliances/,Islamabad,Pakistan,Active,IPv4,Pakistan Telecommunication Company Limited,c002,ISB,1,Ptcl,ISP,,,,33.548,72.825
Netflix,Open Connect Appliance,https://openconnect.netflix.com/en_gb/appliances/,Leipzig,Germany,Active,IPv4,D-09114 Chemnitz,c004,LEJ,1,Enviatel,ISP,,,,51.435,12.244
Netflix,Open Connect Appliance,https://openconnect.netflix.com/en_gb/appliances/,Hamburg,Germany,Active,IPv4,Netflix Streaming Services Inc.,c032,HAM,1,,IXP,,,,53.633,9.991
Netflix,Open Connect Appliance,https://openconnect.netflix.com/en_gb/appliances/,Warsaw,Poland,Active,IPv4,Netflix Streaming Services Inc.,c035,WAW,1,,IXP,,,,52.17,20.971
Netflix,Open Connect Appliance,https://openconnect.netflix.com/en_gb/appliances/,Frankfurt-am-Main,Germany,Active,IPv4,Netflix Streaming Services Inc.,c078,FRA,2,,IXP,,,,50.025,8.542
Netflix,Open Connect Appliance,https://openconnect.netflix.com/en_gb/appliances/,London,United Kingdom,Active,IPv6,TalkTalk Communications Limited,c001,LHR,3,Talktalk,ISP,,,,51.472,-0.461
Netflix,Open Connect Appliance,https://openconnect.netflix.com/en_gb/appliances/,Hamburg,Germany,Active,IPv6,Buchholz Digital GmbH,c001,XFW,1,Buchholz,ISP,,,,53.539,9.84
Netflix,Open Connect Appliance,https://openconnect.netflix.com/en_gb/appliances/,Belo Horizonte,Brazil,Active,IPv6,CLARO S.A.,c002,CNF,2,Claro br net,ISP,,,,-19.628,-43.975
Netflix,Open Connect Appliance,https://openconnect.netflix.com/en_gb/appliances/,Ezeiza,Argentina,Active,IPv6,Telecentro S.A.,c005,EZE,7,Telecentro,ISP,,,,-34.827,-58.54
Netflix,Open Connect Appliance,https://openconnect.netflix.com/en_gb/appliances/,Rionegro,Colombia,Active,IPv6,EPM Telecomunicaciones S.A. E.S.P.,c011,MDE,2,Une,ISP,,,,6.167,-75.421
Netflix,Open Connect Appliance,https://openconnect.netflix.com/en_gb/appliances/,London,United Kingdom,Active,IPv4,,c003,LHR,8,Sky,ISP,,,,51.467,-0.466
Netflix,Open Connect Appliance,https://openconnect.netflix.com/en_gb/appliances/,Paris,France,Active,IPv4,Netflix Streaming Services Inc.,c100,CDG,1,,IXP,,,,49.013,2.55
Netflix,Open Connect Appliance,https://openconnect.netflix.com/en_gb/appliances/,London,United Kingdom,Active,IPv4,Netflix Streaming Services Inc.,c106,LHR,4,,IXP,,,,51.472,-0.46
Netflix,Open Connect Appliance,https://openconnect.netflix.com/en_gb/appliances/,Denver,United States,Active,IPv6,Netflix Streaming Services Inc.,c011,DEN,1,,IXP,,,,39.858,-104.677
Netflix,Open Connect Appliance,https://openconnect.netflix.com/en_gb/appliances/,Washburn,United States,Active,IPv6,Netflix Streaming Services Inc.,c087,WAS,1,,IXP,,,,47.354,-101.026
Netflix,Open Connect Appliance,https://openconnect.netflix.com/en_gb/appliances/,Buenos Aires,Argentina,Active,IPv4,IFX Corporation,c001,AEP,1,Ifxnw ve,ISP,,,,-34.555,-58.412
Netflix,Open Connect Appliance,https://openconnect.netflix.com/en_gb/appliances/,Alicante,Spain,Active,IPv4,Telfy Telecom S.L.,c001,ALC,1,Telfy,ISP,,,,38.28,-0.56
Netflix,Open Connect Appliance,https://openconnect.netflix.com/en_gb/appliances/,Bom Jesus Da Lapa,Brazil,Active,IPv4,MICKS TELECOM EIRELI,c001,LAZ,1,Micks,ISP,,,,-13.26,-43.406
Netflix,Open Connect Appliance,https://openconnect.netflix.com/en_gb/appliances/,Monterrey,Mexico,Active,IPv4,ALTAN REDES,c001,MTY,1,Altan redes,ISP,,,,25.778,-100.107
Netflix,Open Connect Appliance,https://openconnect.netflix.com/en_gb/appliances/,Albrook,Panama,Active,IPv4,InteRED Panama,c001,PAC,1,Intered pa,ISP,,,,8.972,-79.557
Netflix,Open Connect Appliance,https://openconnect.netflix.com/en_gb/appliances/,Islamabad,Pakistan,Active,IPv4,Pakistan Telecommunication Company Limited,c003,ISB,1,Ptcl,ISP,,,,33.549,72.825
Netflix,Open Connect Appliance,https://openconnect.netflix.com/en_gb/appliances/,Ponce,Puerto Rico,Active,IPv4,Liberty Cablevision of Puerto Rico,c004,PSE,1,Liberty,ISP,,,,18.01,-66.561
Netflix,Open Connect Appliance,https://openconnect.netflix.com/en_gb/appliances/,Porto Alegre,Brazil,Active,IPv4,Brasil Telecom S/A - Filial Distrito Federal,c005,POA,2,Oi,ISP,,,,-29.995,-51.172
Netflix,Open Connect Appliance,https://openconnect.netflix.com/en_gb/appliances/,Pittsburgh,United States,Active,IPv4,Netflix Streaming Services Inc.,c042,PIT,2,,IXP,,,,40.49,-80.235
Netflix,Open Connect Appliance,https://openconnect.netflix.com/en_gb/appliances/,Kelowna,Canada,Active,IPv6,TELUS Communications Inc.,c002,YLW,1,Telus,ISP,,,,49.952,-119.382
Netflix,Open Connect Appliance,https://openconnect.netflix.com/en_gb/appliances/,Ribeirao Preto,Brazil,Active,IPv6,TELEFONICA BRASIL S.A,c005,RAO,1,Telefonica br,ISP,,,,-21.136,-47.776
Netflix,Open Connect Appliance,https://openconnect.netflix.com/en_gb/appliances/,Bogota,Colombia,Active,IPv6,Telmex Colombia S.A.,c007,BOG,6,Claro co,ISP,,,,4.705,-74.144
Netflix,Open Connect Appliance,https://openconnect.netflix.com/en_gb/appliances/,Atlanta,United States,Active,IPv6,Netflix Streaming Services Inc.,c062,ATL,4,,IXP,,,,33.64,-84.425
Netflix,Open Connect Appliance,https://openconnect.netflix.com/en_gb/appliances/,Paris,France,Active,IPv6,Netflix Streaming Services Inc.,c159,CDG,1,,IXP,,,,49.012,2.549
Netflix,Open Connect Appliance,https://openconnect.netflix.com/en_gb/appliances/,Joinville,Brazil,Active,IPv4,CAIOBA FIBRA COMUNICACOES LTDA,c002,JOI,1,Caiobatelecom,ISP,,,,-26.227,-48.8
Netflix,Open Connect Appliance,https://openconnect.netflix.com/en_gb/appliances/,Madrid,Spain,Active,IPv4,Netflix Streaming Services Inc.,c094,MAD,1,,IXP,,,,40.497,-3.564
Netflix,Open Connect Appliance,https://openconnect.netflix.com/en_gb/appliances/,Lapu-Lapu City,Philippines,Active,IPv6,Globe Telecoms,c002,CEB,1,Globetelecom,ISP,,,,10.305,123.977
Netflix,Open Connect Appliance,https://openconnect.netflix.com/en_gb/appliances/,Auckland,New Zealand,Active,IPv6,TrustPower Ltd,c003,AKL,2,Trustpower,ISP,,,,-37.01,174.79
Netflix,Open Connect Appliance,https://openconnect.netflix.com/en_gb/appliances/,Pori,Finland,Active,IPv6,,c004,POR,1,Dna,ISP,,,,61.46,21.798
Netflix,Open Connect Appliance,https://openconnect.netflix.com/en_gb/appliances/,Puebla,Mexico,Active,IPv6,Uninet S.A. de C.V.,c012,PBC,1,Telmex,ISP,,,,19.157,-98.372
Netflix,Open Connect Appliance,https://openconnect.netflix.com/en_gb/appliances/,Toronto,Canada,Active,IPv6,BACOM,c019,YYZ,4,Bellcanada,ISP,,,,43.674,-79.634
Netflix,Open Connect Appliance,https://openconnect.netflix.com/en_gb/appliances/,Islamabad,Pakistan,Active,IPv4,Nayatel (Pvt) Ltd,c001,ISB,1,Nayatel,ISP,,,,33.55,72.826
Netflix,Open Connect Appliance,https://openconnect.netflix.com/en_gb/appliances/,Milan,Italy,Active,IPv4,Linkem spa,c001,LIN,1,Linkem,ISP,,,,45.443,9.274
Netflix,Open Connect Appliance,https://openconnect.netflix.com/en_gb/appliances/,Miami,United States,Active,IPv4,Netflix Streaming Services Inc.,c003,MIA,5,,IXP,,,,25.792,-80.292
Netflix,Open Connect Appliance,https://openconnect.netflix.com/en_gb/appliances/,Port of Spain,Trinidad and Tobago,Active,IPv6,Digicel Trinidad and Tobago Ltd.,c001,POS,1,Digicel trinidad,ISP,,,,10.599,-61.333
Netflix,Open Connect Appliance,https://openconnect.netflix.com/en_gb/appliances/,Atlanta,United States,Active,IPv6,Netflix Streaming Services Inc.,c044,ATL,4,,IXP,,,,33.634,-84.431
Netflix,Open Connect Appliance,https://openconnect.netflix.com/en_gb/appliances/,Amsterdam,Netherlands,Active,IPv4,H2B Assets B.V.,c001,AMS,2,H2b,ISP,,,,52.311,4.766
Netflix,Open Connect Appliance,https://openconnect.netflix.com/en_gb/appliances/,Napoli,Italy,Active,IPv4,Vodafone Italia S.p.A.,c001,NAP,2,Vodafoneit,ISP,,,,40.887,14.292
Netflix,Open Connect Appliance,https://openconnect.netflix.com/en_gb/appliances/,Recife,Brazil,Active,IPv4,LOCALLINK TELECOMUNICACOES LTDA - ME,c001,REC,2,Locallink,ISP,,,,-8.127,-34.924
Netflix,Open Connect Appliance,https://openconnect.netflix.com/en_gb/appliances/,San Jose,Costa Rica,Active,IPv4,Instituto Costarricense de Electricidad y Telecom.,c001,SJO,6,Kolbi,ISP,,,,9.992,-84.211
Netflix,Open Connect Appliance,https://openconnect.netflix.com/en_gb/appliances/,Montreal,Canada,Active,IPv4,TekSavvy Solutions,c001,YHU,1,Teksavvy,ISP,,,,45.516,-73.418
Netflix,Open Connect Appliance,https://openconnect.netflix.com/en_gb/appliances/,Madrid,Spain,Active,IPv4,DIGI SPAIN TELECOM S.L.U.,c002,MAD,1,Diginet,ISP,,,,40.491,-3.57
Netflix,Open Connect Appliance,https://openconnect.netflix.com/en_gb/appliances/,Maringa,Brazil,Active,IPv4,FORNET COMUNICACOES LTDA,c002,MGF,1,Fornet,ISP,,,,-23.475,-52.008
Netflix,Open Connect Appliance,https://openconnect.netflix.com/en_gb/appliances/,Maringa,Brazil,Active,IPv4,TELEFONICA BRASIL S.A,c002,MGF,1,Telefonica br,ISP,,,,-23.478,-52.011
Netflix,Open Connect Appliance,https://openconnect.netflix.com/en_gb/appliances/,Montpellier/Mediterranee,France,Active,IPv4,SFR SA,c002,MPL,1,Sfr,ISP,,,,43.58,3.967
Netflix,Open Connect Appliance,https://openconnect.netflix.com/en_gb/appliances/,Noumea,New Caledonia,Active,IPv4,Office des Postes et Telecommunications New-Caledonia,c003,GEA,1,Opt nc,ISP,,,,-22.255,166.476
Netflix,Open Connect Appliance,https://openconnect.netflix.com/en_gb/appliances/,Rio De Janeiro,Brazil,Active,IPv4,CLARO S.A.,c004,GIG,8,Claro br net,ISP,,,,-22.807,-43.247
Netflix,Open Connect Appliance,https://openconnect.netflix.com/en_gb/appliances/,Rio De Janeiro,Brazil,Active,IPv4,CLARO S.A.,c005,GIG,7,Claro br net,ISP,,,,-22.811,-43.251
Netflix,Open Connect Appliance,https://openconnect.netflix.com/en_gb/appliances/,Perth,Australia,Active,IPv4,Telstra Corporation Ltd,c005,PER,1,Telstra,ISP,,,,-31.937,115.97
Netflix,Open Connect Appliance,https://openconnect.netflix.com/en_gb/appliances/,Hamburg,Germany,Active,IPv6,Netflix Streaming Services Inc.,c001,HAM,1,,IXP,,,,53.633,9.991
Netflix,Open Connect Appliance,https://openconnect.netflix.com/en_gb/appliances/,Teresina,Brazil,Active,IPv6,Telemar Norte Leste S.A.,c001,THE,1,Oi,ISP,,,,-5.059,-42.822
Netflix,Open Connect Appliance,https://openconnect.netflix.com/en_gb/appliances/,Maringa,Brazil,Active,IPv6,ISPX Solucoes em Telecomunicacoes SPE Ltda,c002,MGF,1,,ISP,,,,-23.48,-52.012
Netflix,Open Connect Appliance,https://openconnect.netflix.com/en_gb/appliances/,Augsburg,Germany,Active,IPv6,Oskar-von-Miller-Str. 1b,c003,AGB,1,Lewtelnet,ISP,,,,48.423,10.929
Netflix,Open Connect Appliance,https://openconnect.netflix.com/en_gb/appliances/,Des Moines,United States,Active,IPv6,CenturyLink Communications,c004,DSM,1,Centurylink,ISP,,,,41.534,-93.663
Netflix,Open Connect Appliance,https://openconnect.netflix.com/en_gb/appliances/,Sao Paulo,Brazil,Active,IPv6,CLARO S.A.,c006,CGH,4,Claro br net,ISP,,,,-23.626,-46.656
Netflix,Open Connect Appliance,https://openconnect.netflix.com/en_gb/appliances/,Kamloops,Canada,Active,IPv6,TELUS Communications Inc.,c008,YKA,1,Telus,ISP,,,,50.706,-120.44
Netflix,Open Connect Appliance,https://openconnect.netflix.com/en_gb/appliances/,San Jose,United States,Active,IPv6,Netflix Streaming Services Inc.,c639,SJC,2,,IXP,,,,37.359,-121.932
Netflix,Open Connect Appliance,https://openconnect.netflix.com/en_gb/appliances/,London,United Kingdom,Active,IPv4,,c001,LCY,1,Vodafoneuk,ISP,,,,51.501,0.051
Netflix,Open Connect Appliance,https://openconnect.netflix.com/en_gb/appliances/,Halifax,Canada,Active,IPv4,Bell Canada,c003,YHZ,1,Bellaliant,ISP,,,,44.879,-63.51
Netflix,Open Connect Appliance,https://openconnect.netflix.com/en_gb/appliances/,Birmingham,United Kingdom,Active,IPv4,BTnet UK Regional network,c010,BHX,2,Bt,ISP,,,,52.452,-1.75
Netflix,Open Connect Appliance,https://openconnect.netflix.com/en_gb/appliances/,Seattle,United States,Active,IPv4,Netflix Streaming Services Inc.,c032,SEA,3,,IXP,,,,47.45,-122.308
Netflix,Open Connect Appliance,https://openconnect.netflix.com/en_gb/appliances/,Rio De Janeiro,Brazil,Active,IPv4,NET ALTERNATIVA PROVEDOR DE INTERNET LTDA - ME,c002,SDU,1,Netalternativa,ISP,,,,-22.911,-43.163
Netflix,Open Connect Appliance,https://openconnect.netflix.com/en_gb/appliances/,Adelaide,Australia,Active,IPv4,Telstra Corporation Ltd,c005,ADL,1,Telstra,ISP,,,,-34.948,138.528
Netflix,Open Connect Appliance,https://openconnect.netflix.com/en_gb/appliances/,Glasgow,United Kingdom,Active,IPv4,Netflix Streaming Services Inc.,c021,GLA,1,Bt,ISP,,,,55.873,-4.432
Netflix,Open Connect Appliance,https://openconnect.netflix.com/en_gb/appliances/,Ahmedabad,India,Active,IPv6,BHARTI Airtel Ltd.,c001,AMD,2,Bhartiairtel,ISP,,,,23.074,72.631
Netflix,Open Connect Appliance,https://openconnect.netflix.com/en_gb/appliances/,Tanta-Tabalong-Borneo Island,Indonesia,Active,IPv6,PT Telekomunikasi Indonesia,c001,TJG,2,Telkom,ISP,,,,-2.214,115.438
Netflix,Open Connect Appliance,https://openconnect.netflix.com/en_gb/appliances/,Bauru,Brazil,Active,IPv6,CLARO S.A.,c002,BAU,1,Claro br net,ISP,,,,-22.349,-49.058
Netflix,Open Connect Appliance,https://openconnect.netflix.com/en_gb/appliances/,Cardiff,United Kingdom,Active,IPv6,TalkTalk Communications Limited,c002,CWL,1,Talktalk,ISP,,,,51.399,-3.341
Netflix,Open Connect Appliance,https://openconnect.netflix.com/en_gb/appliances/,Taipei City,"Taiwan, Province of China",Active,IPv6,Far EastTone Telecommunication Co.,c002,TSA,1,Fareastone,ISP,,,,25.067,121.549
Netflix,Open Connect Appliance,https://openconnect.netflix.com/en_gb/appliances/,Warsaw,Poland,Active,IPv6,,c006,WAW,1,,IXP,,,,52.168,20.97
Netflix,Open Connect Appliance,https://openconnect.netflix.com/en_gb/appliances/,Vancouver,Canada,Active,IPv6,TELUS Communications Inc.,c017,YVR,4,Telus,ISP,,,,49.197,-123.181
Netflix,Open Connect Appliance,https://openconnect.netflix.com/en_gb/appliances/,Brussels,Belgium,Active,IPv6,Netflix Streaming Services Inc.,c023,BRU,1,,IXP,,,,50.905,4.488
Netflix,Open Connect Appliance,https://openconnect.netflix.com/en_gb/appliances/,Port of Spain,Trinidad and Tobago,Active,IPv4,,c001,POS,1,Tstt,ISP,,,,10.596,-61.337
Netflix,Open Connect Appliance,https://openconnect.netflix.com/en_gb/appliances/,Belo Horizonte,Brazil,Active,IPv4,TelecomDados Ltda,c001,CNF,1,Telecomdados,ISP,,,,-19.621,-43.969
Netflix,Open Connect Appliance,https://openconnect.netflix.com/en_gb/appliances/,Limeira,Brazil,Active,IPv4,,c002,QGB,1,Networktelecom,ISP,,,,-22.601,-47.409
Netflix,Open Connect Appliance,https://openconnect.netflix.com/en_gb/appliances/,Caracas,"Venezuela, Bolivarian Republic of",Active,IPv4,IFX Networks Venezuela C.A.,c003,CCS,1,Ifxnw ve,ISP,,,,10.6,-66.993
Netflix,Open Connect Appliance,https://openconnect.netflix.com/en_gb/appliances/,Vagar,Faroe Islands,Active,IPv4,P/F Telefonverkid,c005,FAE,1,Faroese telecom,ISP,,,,62.067,-7.274
Netflix,Open Connect Appliance,https://openconnect.netflix.com/en_gb/appliances/,Ezeiza,Argentina,Active,IPv4,,c016,EZE,6,Telecom argentina,ISP,,,,-34.822,-58.535
Netflix,Open Connect Appliance,https://openconnect.netflix.com/en_gb/appliances/,Tocumen,Panama,Active,IPv6,,c002,PTY,1,Cable onda,ISP,,,,9.075,-79.38
Netflix,Open Connect Appliance,https://openconnect.netflix.com/en_gb/appliances/,Boise,United States,Active,IPv6,,c010,BOI,1,Centurylink,ISP,,,,43.566,-116.221
Netflix,Open Connect Appliance,https://openconnect.netflix.com/en_gb/appliances/,Rotterdam,Netherlands,Active,IPv6,KPN B.V.,c049,RTM,1,Kpn,ISP,,,,51.955,4.435
Netflix,Open Connect Appliance,https://openconnect.netflix.com/en_gb/appliances/,Palermo,Italy,Active,IPv6,Telecom Italia S.p.A.,c002,PMO,1,Teleit,ISP,,,,38.175,13.09
Netflix,Open Connect Appliance,https://openconnect.netflix.com/en_gb/appliances/,Chennai,India,Active,IPv4,Netflix Streaming Services Inc.,c015,MAA,1,,IXP,,,,12.987,80.166
Netflix,Open Connect Appliance,https://openconnect.netflix.com/en_gb/appliances/,Warsaw,Poland,Active,IPv6,Orange Polska Spolka Akcyjna,c001,WMI,1,Orangepl,ISP,,,,52.451,20.652
Netflix,Open Connect Appliance,https://openconnect.netflix.com/en_gb/appliances/,New Delhi,India,Active,IPv6,Netflix Streaming Services Inc.,c002,DEL,2,,IXP,,,,28.565,77.102
Netflix,Open Connect Appliance,https://openconnect.netflix.com/en_gb/appliances/,Copenhagen,Denmark,Active,IPv4,,c002,CPH,4,Tdc,ISP,,,,55.616,12.654
Netflix,Open Connect Appliance,https://openconnect.netflix.com/en_gb/appliances/,San Jose,United States,Active,IPv6,Netflix Streaming Services Inc.,c002,SJC,3,,IXP,,,,37.366,-121.926
Netflix,Open Connect Appliance,https://openconnect.netflix.com/en_gb/appliances/,Sydney,Australia,Active,IPv6,,c002,SYD,1,Aussiebb,ISP,,,,-33.942,151.181
Netflix,Open Connect Appliance,https://openconnect.netflix.com/en_gb/appliances/,San Jose,United States,Active,IPv6,Netflix Streaming Services Inc.,c657,SJC,2,,IXP,,,,37.362,-121.929
Netflix,Open Connect Appliance,https://openconnect.netflix.com/en_gb/appliances/,Houston,United States,Active,IPv4,,c001,IAH,3,Suddenlink,ISP,,,,29.984,-95.342
Netflix,Open Connect Appliance,https://openconnect.netflix.com/en_gb/appliances/,San Jose,United States,Active,IPv4,,c001,SJC,5,,IXP,,,,37.365,-121.927
Netflix,Open Connect Appliance,https://openconnect.netflix.com/en_gb/appliances/,Fargo,United States,Active,IPv4,,c002,FAR,1,Arvig,ISP,,,,46.919,-96.817
Netflix,Open Connect Appliance,https://openconnect.netflix.com/en_gb/appliances/,Paris,France,Active,IPv4,,c003,CDG,1,,IXP,,,,49.008,2.546
Netflix,Open Connect Appliance,https://openconnect.netflix.com/en_gb/appliances/,Kamloops,Canada,Active,IPv4,,c003,YKA,1,Shaw,ISP,,,,50.705,-120.441
Netflix,Open Connect Appliance,https://openconnect.netflix.com/en_gb/appliances/,Yateley,United Kingdom,Active,IPv4,,c004,BBS,1,Sky,ISP,,,,51.328,-0.843
Netflix,Open Connect Appliance,https://openconnect.netflix.com/en_gb/appliances/,Houston,United States,Active,IPv4,,c004,IAH,4,Suddenlink,ISP,,,,29.987,-95.339
Netflix,Open Connect Appliance,https://openconnect.netflix.com/en_gb/appliances/,Minneapolis,United States,Active,IPv4,,c004,MSP,1,,IXP,,,,44.884,-93.22
Netflix,Open Connect Appliance,https://openconnect.netflix.com/en_gb/appliances/,Regina,Canada,Active,IPv4,,c004,YQR,2,Sasktel,ISP,,,,50.433,-104.665
Netflix,Open Connect Appliance,https://openconnect.netflix.com/en_gb/appliances/,Phoenix,United States,Active,IPv4,,c008,PHX,2,Centurylink,ISP,,,,33.433,-112.014
Netflix,Open Connect Appliance,https://openconnect.netflix.com/en_gb/appliances/,Dallas-Fort Worth,United States,Active,IPv4,,c009,DFW,3,,IXP,,,,32.894,-97.04
Netflix,Open Connect Appliance,https://openconnect.netflix.com/en_gb/appliances/,Helsinki,Finland,Active,IPv4,,c028,HEL,1,,IXP,,,,60.321,24.967
Netflix,Open Connect Appliance,https://openconnect.netflix.com/en_gb/appliances/,Los Angeles,United States,Active,IPv4,,c043,LAX,9,,IXP,,,,33.942,-118.409
Netflix,Open Connect Appliance,https://openconnect.netflix.com/en_gb/appliances/,San Jose,United States,Active,IPv4,,c119,SJC,2,,IXP,,,,37.365,-121.927
Netflix,Open Connect Appliance,https://openconnect.netflix.com/en_gb/appliances/,Atlanta,United States,Active,IPv4,,c196,ATL,1,,IXP,,,,33.633,-84.432
Netflix,Open Connect Appliance,https://openconnect.netflix.com/en_gb/appliances/,Atlanta,United States,Active,IPv4,,c200,ATL,1,,IXP,,,,33.638,-84.427
Netflix,Open Connect Appliance,https://openconnect.netflix.com/en_gb/appliances/,Chicago,United States,Active,IPv4,,c227,ORD,1,,IXP,,,,41.977,-87.906
Netflix,Open Connect Appliance,https://openconnect.netflix.com/en_gb/appliances/,Chicago,United States,Active,IPv4,,c231,ORD,1,,IXP,,,,41.982,-87.901
Netflix,Open Connect Appliance,https://openconnect.netflix.com/en_gb/appliances/,Chicago,United States,Active,IPv4,,c373,ORD,1,,IXP,,,,41.975,-87.909
Netflix,Open Connect Appliance,https://openconnect.netflix.com/en_gb/appliances/,Chicago,United States,Active,IPv4,,c428,ORD,1,,IXP,,,,41.976,-87.907
Netflix,Open Connect Appliance,https://openconnect.netflix.com/en_gb/appliances/,San Jose,United States,Active,IPv6,,c030,SJC,5,,IXP,,,,37.366,-121.925
Netflix,Open Connect Appliance,https://openconnect.netflix.com/en_gb/appliances/,Miami,United States,Active,IPv6,,c113,MIA,3,,IXP,,,,25.792,-80.292
Netflix,Open Connect Appliance,https://openconnect.netflix.com/en_gb/appliances/,Atlanta,United States,Active,IPv6,,c128,ATL,1,,IXP,,,,33.639,-84.426
Netflix,Open Connect Appliance,https://openconnect.netflix.com/en_gb/appliances/,Atlanta,United States,Active,IPv6,,c200,ATL,1,,IXP,,,,33.639,-84.426
Netflix,Open Connect Appliance,https://openconnect.netflix.com/en_gb/appliances/,Brussels,Belgium,Active,IPv4,,c001,BRU,1,Proximus,ISP,,,,50.901,4.484
Netflix,Open Connect Appliance,https://openconnect.netflix.com/en_gb/appliances/,Recife,Brazil,Active,IPv4,,c001,REC,1,Speednet br,ISP,,,,-8.128,-34.925
Netflix,Open Connect Appliance,https://openconnect.netflix.com/en_gb/appliances/,Vitoria Da Conquista,Brazil,Active,IPv4,,c001,VDC,1,Protel net,ISP,,,,-14.863,-40.863
Netflix,Open Connect Appliance,https://openconnect.netflix.com/en_gb/appliances/,Lille/Lesquin,France,Active,IPv4,,c002,LIL,1,Bouyguestelecom,ISP,,,,50.564,3.092
Netflix,Open Connect Appliance,https://openconnect.netflix.com/en_gb/appliances/,Valencia,Spain,Active,IPv4,,c004,VLC,2,Orangees,ISP,,,,39.492,-0.479
Netflix,Open Connect Appliance,https://openconnect.netflix.com/en_gb/appliances/,Villacoublay/Velizy,France,Active,IPv4,,c006,VIY,1,Bouyguestelecom,ISP,,,,48.771,2.198
Netflix,Open Connect Appliance,https://openconnect.netflix.com/en_gb/appliances/,Stockholm,Sweden,Active,IPv4,,c010,ARN,2,Comhem,ISP,,,,59.651,17.918
Netflix,Open Connect Appliance,https://openconnect.netflix.com/en_gb/appliances/,Manila,Philippines,Active,IPv4,,c017,MNL,1,Convergeict,ISP,,,,14.507,121.018
Netflix,Open Connect Appliance,https://openconnect.netflix.com/en_gb/appliances/,Hamburg,Germany,Active,IPv6,,c002,HAM,2,Wilhelmtel,ISP,,,,53.628,9.986
Netflix,Open Connect Appliance,https://openconnect.netflix.com/en_gb/appliances/,Strasbourg,France,Active,IPv6,,c003,SXB,1,Bouyguestelecom,ISP,,,,48.54,7.63
Netflix,Open Connect Appliance,https://openconnect.netflix.com/en_gb/appliances/,London,United Kingdom,Active,IPv6,,c004,LHR,5,,IXP,,,,51.473,-0.46
Netflix,Open Connect Appliance,https://openconnect.netflix.com/en_gb/appliances/,Denver,United States,Active,IPv6,Netflix Streaming Services Inc.,c014,DEN,1,,IXP,,,,39.861,-104.674
Netflix,Open Connect Appliance,https://openconnect.netflix.com/en_gb/appliances/,Dallas-Fort Worth,United States,Active,IPv6,,c026,DFW,3,,IXP,,,,32.899,-97.036
Netflix,Open Connect Appliance,https://openconnect.netflix.com/en_gb/appliances/,Sao Paulo,Brazil,Active,IPv6,,c039,GRU,5,,IXP,,,,-23.435,-46.472
Netflix,Open Connect Appliance,https://openconnect.netflix.com/en_gb/appliances/,Sao Paulo,Brazil,Active,IPv6,,c045,GRU,1,,IXP,,,,-23.433,-46.47
Netflix,Open Connect Appliance,https://openconnect.netflix.com/en_gb/appliances/,Minneapolis,United States,Active,IPv6,,c051,MSP,1,,IXP,,,,44.879,-93.225
Netflix,Open Connect Appliance,https://openconnect.netflix.com/en_gb/appliances/,Atlanta,United States,Active,IPv6,,c157,ATL,1,,IXP,,,,33.639,-84.426
Netflix,Open Connect Appliance,https://openconnect.netflix.com/en_gb/appliances/,Chicago,United States,Active,IPv6,,c305,ORD,1,,IXP,,,,41.981,-87.903
Netflix,Open Connect Appliance,https://openconnect.netflix.com/en_gb/appliances/,Chicago,United States,Active,IPv6,,c326,ORD,1,,IXP,,,,41.975,-87.909
Netflix,Open Connect Appliance,https://openconnect.netflix.com/en_gb/appliances/,Chicago,United States,Active,IPv6,,c440,ORD,1,,IXP,,,,41.983,-87.901
Netflix,Open Connect Appliance,https://openconnect.netflix.com/en_gb/appliances/,Manila,Philippines,Active,IPv4,SKYBroadband SKYCable Corporation,c001,MNL,2,Skycable,ISP,,,,14.508,121.019
Netflix,Open Connect Appliance,https://openconnect.netflix.com/en_gb/appliances/,Santo Domingo,Dominican Republic,Active,IPv4,ALTICE DOMINICANA S.A.,c003,SDQ,1,Orange do,ISP,,,,18.433,-69.666
Netflix,Open Connect Appliance,https://openconnect.netflix.com/en_gb/appliances/,Newcastle,United Kingdom,Active,IPv4,Sky UK Limited,c004,NCL,1,Sky,ISP,,,,55.038,-1.691
Netflix,Open Connect Appliance,https://openconnect.netflix.com/en_gb/appliances/,Bogota,Colombia,Active,IPv4,ETB - Colombia,c007,BOG,1,Etb,ISP,,,,4.698,-74.15
Netflix,Open Connect Appliance,https://openconnect.netflix.com/en_gb/appliances/,Toronto,Canada,Active,IPv4,BACOM,c009,YYZ,4,Bellcanada,ISP,,,,43.681,-79.627
Netflix,Open Connect Appliance,https://openconnect.netflix.com/en_gb/appliances/,Asuncion,Paraguay,Active,IPv4,UFINET PANAMA S.A.,c001,ASU,1,Ufinet gt,ISP,,,,-25.238,-57.518
Netflix,Open Connect Appliance,https://openconnect.netflix.com/en_gb/appliances/,Riyadh,Saudi Arabia,Active,IPv4,Etihad Etisalat Company (Mobily),c001,XXN,4,Mobily,ISP,,,,24.71,46.725
Netflix,Open Connect Appliance,https://openconnect.netflix.com/en_gb/appliances/,Rimouski,Canada,Active,IPv4,TELUS Communications Inc.,c001,YXK,2,Telus,ISP,,,,48.482,-68.493
Netflix,Open Connect Appliance,https://openconnect.netflix.com/en_gb/appliances/,Sao Paulo,Brazil,Active,IPv4,Iveloz Telecom,c002,GRU,1,Iveloz,ISP,,,,-23.436,-46.474
Netflix,Open Connect Appliance,https://openconnect.netflix.com/en_gb/appliances/,Pirassununga,Brazil,Active,IPv4,NR Telecom EIRELI - ME,c002,QPS,1,Nrtelecom,ISP,,,,-21.986,-47.336
Netflix,Open Connect Appliance,https://openconnect.netflix.com/en_gb/appliances/,Santiago,Chile,Active,IPv4,GRUPO ZGH SPA,c004,SCL,1,Zgh,ISP,,,,-33.394,-70.787
Netflix,Open Connect Appliance,https://openconnect.netflix.com/en_gb/appliances/,Sao Paulo,Brazil,Active,IPv4,TIM S/A,c006,CGH,2,Tim,ISP,,,,-23.63,-46.66
Netflix,Open Connect Appliance,https://openconnect.netflix.com/en_gb/appliances/,Lima,Peru,Active,IPv4,Telefonica del Peru S.A.A.,c014,LIM,2,Telefonicaperu,ISP,,,,-12.021,-77.114
Netflix,Open Connect Appliance,https://openconnect.netflix.com/en_gb/appliances/,Poznan,Poland,Active,IPv6,INEA S.A.,c001,POZ,1,Inea,ISP,,,,52.422,16.827
Netflix,Open Connect Appliance,https://openconnect.netflix.com/en_gb/appliances/,Lima,Peru,Active,IPv6,Telefonica del Peru S.A.A.,c002,LIM,6,Telefonicaperu,ISP,,,,-12.024,-77.117
Netflix,Open Connect Appliance,https://openconnect.netflix.com/en_gb/appliances/,Lima,Peru,Active,IPv6,,c011,LIM,1,Telxius,ISP,,,,-12.025,-77.117
Netflix,Open Connect Appliance,https://openconnect.netflix.com/en_gb/appliances/,Hermosillo,Mexico,Active,IPv6,Uninet S.A. de C.V.,c017,HMO,1,Telmex,ISP,,,,29.098,-111.046
Netflix,Open Connect Appliance,https://openconnect.netflix.com/en_gb/appliances/,San Jose,United States,Active,IPv6,,c203,SJC,2,,IXP,,,,37.366,-121.926
Netflix,Open Connect Appliance,https://openconnect.netflix.com/en_gb/appliances/,Napoli,Italy,Active,IPv4,IUNET,c001,NAP,2,Wind,ISP,,,,40.884,14.289
Netflix,Open Connect Appliance,https://openconnect.netflix.com/en_gb/appliances/,Cochin,India,Active,IPv4,Alliance Broadband Services Pvt. Ltd.,c002,COK,1,Alliancebb,ISP,,,,10.148,76.397
Netflix,Open Connect Appliance,https://openconnect.netflix.com/en_gb/appliances/,Frankfurt-am-Main,Germany,Active,IPv6,Netflix Streaming Services Inc.,c003,FRA,2,,IXP,,,,50.027,8.544
Netflix,Open Connect Appliance,https://openconnect.netflix.com/en_gb/appliances/,Aracatuba,Brazil,Active,IPv4,,c001,ARU,1,Telnets,ISP,,,,-21.139,-50.422
Netflix,Open Connect Appliance,https://openconnect.netflix.com/en_gb/appliances/,Alicante,Spain,Active,IPv4,Televideo Novelda S.A. (Unipersonal),c002,ALC,1,Cableaireworld,ISP,,,,38.279,-0.561
Netflix,Open Connect Appliance,https://openconnect.netflix.com/en_gb/appliances/,Papeete,French Polynesia,Active,IPv4,VITI,c002,PPT,1,Viti,ISP,,,,-17.556,-149.609
Netflix,Open Connect Appliance,https://openconnect.netflix.com/en_gb/appliances/,Calgary,Canada,Active,IPv4,TELUS Communications Inc.,c002,YYC,7,Telus,ISP,,,,51.118,-114.016
Netflix,Open Connect Appliance,https://openconnect.netflix.com/en_gb/appliances/,Ribeirao Preto,Brazil,Active,IPv4,P16 Telecom,c003,RAO,1,Weclix,ISP,,,,-21.135,-47.775
Netflix,Open Connect Appliance,https://openconnect.netflix.com/en_gb/appliances/,Buenos Aires,Argentina,Active,IPv4,Telecentro S.A.,c004,AEP,7,Telecentro,ISP,,,,-34.562,-58.419
Netflix,Open Connect Appliance,https://openconnect.netflix.com/en_gb/appliances/,Sydney,Australia,Active,IPv4,TPG Telecom Limited,c006,SYD,2,Tpg,ISP,,,,-33.942,151.181
Netflix,Open Connect Appliance,https://openconnect.netflix.com/en_gb/appliances/,Mexico City,Mexico,Active,IPv4,Uninet S.A. de C.V.,c028,MEX,1,Telmex,ISP,,,,19.432,-99.076
Netflix,Open Connect Appliance,https://openconnect.netflix.com/en_gb/appliances/,Adelaide,Australia,Active,IPv6,Vocus Retail,c001,ADL,1,M2,ISP,,,,-34.945,138.531
Netflix,Open Connect Appliance,https://openconnect.netflix.com/en_gb/appliances/,Cuiaba,Brazil,Active,IPv6,Brasil Telecom S/A - Filial Distrito Federal,c001,CGB,2,Oi,ISP,,,,-15.653,-56.117
Netflix,Open Connect Appliance,https://openconnect.netflix.com/en_gb/appliances/,Rennes/Saint-Jacques,France,Active,IPv6,Orange S.A.,c002,RNS,4,Orange,ISP,,,,48.072,-1.732
Netflix,Open Connect Appliance,https://openconnect.netflix.com/en_gb/appliances/,Jakarta,Indonesia,Active,IPv6,PT Telekomunikasi Indonesia,c003,CGK,1,Telkom,ISP,,,,-6.121,106.66
Netflix,Open Connect Appliance,https://openconnect.netflix.com/en_gb/appliances/,Juazeiro Do Norte,Brazil,Active,IPv6,Natel Telecom Ltda. - ME,c003,JDO,1,Ateltelecom,ISP,,,,-7.22,-39.271
Netflix,Open Connect Appliance,https://openconnect.netflix.com/en_gb/appliances/,Rio De Janeiro,Brazil,Active,IPv6,CLARO S.A.,c004,SDU,6,Claro br net,ISP,,,,-22.913,-43.166
Netflix,Open Connect Appliance,https://openconnect.netflix.com/en_gb/appliances/,Mexico City,Mexico,Active,IPv6,Cablemas Telecomunicaciones SA de CV,c005,MEX,3,Izzi,ISP,,,,19.433,-99.075
Netflix,Open Connect Appliance,https://openconnect.netflix.com/en_gb/appliances/,Bogota,Colombia,Active,IPv6,ETB - Colombia,c006,BOG,2,Etb,ISP,,,,4.701,-74.147
Netflix,Open Connect Appliance,https://openconnect.netflix.com/en_gb/appliances/,Porto Alegre,Brazil,Active,IPv6,Brasil Telecom S/A - Filial Distrito Federal,c006,POA,2,Oi,ISP,,,,-29.997,-51.174
Netflix,Open Connect Appliance,https://openconnect.netflix.com/en_gb/appliances/,Chennai,India,Active,IPv6,Netflix Streaming Services Inc.,c010,MAA,1,,IXP,,,,12.991,80.171
Netflix,Open Connect Appliance,https://openconnect.netflix.com/en_gb/appliances/,Pittsburgh,United States,Active,IPv6,Netflix Streaming Services Inc.,c020,PIT,2,,IXP,,,,40.494,-80.23
Netflix,Open Connect Appliance,https://openconnect.netflix.com/en_gb/appliances/,Newark,United States,Active,IPv6,Cablevision Systems Corp.,c039,EWR,1,Altice east,ISP,,,,40.69,-74.171
Netflix,Open Connect Appliance,https://openconnect.netflix.com/en_gb/appliances/,Mumbai,India,Active,IPv6,Netflix Streaming Services Inc.,c051,BOM,1,,IXP,,,,19.086,72.865
Netflix,Open Connect Appliance,https://openconnect.netflix.com/en_gb/appliances/,Kidlington,United Kingdom,Active,IPv4,TalkTalk Communications Limited,c001,OXF,1,Talktalk,ISP,,,,51.834,-1.322
Netflix,Open Connect Appliance,https://openconnect.netflix.com/en_gb/appliances/,Doha,Qatar,Active,IPv4,Ooredoo Q.S.C.,c002,DOH,4,Ooredooqa,ISP,,,,25.26,51.613
Netflix,Open Connect Appliance,https://openconnect.netflix.com/en_gb/appliances/,London,United Kingdom,Active,IPv4,Virgin Media,c004,LGW,2,Virginmedia,ISP,,,,51.148,-0.19
Netflix,Open Connect Appliance,https://openconnect.netflix.com/en_gb/appliances/,Tulsa,United States,Active,IPv4,CABLE ONE,c004,TUL,1,Cableone,ISP,,,,36.2,-95.887
Netflix,Open Connect Appliance,https://openconnect.netflix.com/en_gb/appliances/,Manchester,United Kingdom,Active,IPv4,TalkTalk Communications Limited,c010,MAN,1,Talktalk,ISP,,,,53.351,-2.278
Netflix,Open Connect Appliance,https://openconnect.netflix.com/en_gb/appliances/,Kansas City,United States,Active,IPv4,Netflix Streaming Services Inc.,c047,MCI,1,,IXP,,,,39.294,-94.717
Netflix,Open Connect Appliance,https://openconnect.netflix.com/en_gb/appliances/,Houston,United States,Active,IPv4,Netflix Streaming Services Inc.,c056,IAH,1,,IXP,,,,29.984,-95.342
Netflix,Open Connect Appliance,https://openconnect.netflix.com/en_gb/appliances/,Paris,France,Active,IPv4,Netflix Streaming Services Inc.,c187,CDG,1,,IXP,,,,49.014,2.551
Netflix,Open Connect Appliance,https://openconnect.netflix.com/en_gb/appliances/,Firenze,Italy,Active,IPv6,IUNET,c001,FLR,1,Wind,ISP,,,,43.808,11.203
Netflix,Open Connect Appliance,https://openconnect.netflix.com/en_gb/appliances/,Davao City,Philippines,Active,IPv4,Converge ICT Solutions Inc.,c001,DVO,1,Convergeict,ISP,,,,7.122,125.642
Netflix,Open Connect Appliance,https://openconnect.netflix.com/en_gb/appliances/,Johannesburg,South Africa,Active,IPv4,Cell C (Pty) Ltd,c001,JNB,6,Cellc,ISP,,,,-26.133,28.25
Netflix,Open Connect Appliance,https://openconnect.netflix.com/en_gb/appliances/,La Plata,Argentina,Active,IPv4,Telefonica de Argentina,c002,LPG,1,Telefonica ar,ISP,,,,-34.969,-57.891
Netflix,Open Connect Appliance,https://openconnect.netflix.com/en_gb/appliances/,Oklahoma City,United States,Active,IPv4,Suddenlink Communications,c002,OKC,2,Suddenlink,ISP,,,,35.392,-97.602
Netflix,Open Connect Appliance,https://openconnect.netflix.com/en_gb/appliances/,Asuncion,Paraguay,Active,IPv4,Telecel S.A.,c006,ASU,3,Tigo paraguay,ISP,,,,-25.236,-57.516
Netflix,Open Connect Appliance,https://openconnect.netflix.com/en_gb/appliances/,Geneva,Switzerland,Active,IPv4,Sunrise Communications AG,c008,GVA,1,Sunrise,ISP,,,,46.236,6.107
Netflix,Open Connect Appliance,https://openconnect.netflix.com/en_gb/appliances/,Hakodate,Japan,Active,IPv6,Newmedia Corporation,c001,HKD,1,Newmedia,ISP,,,,41.774,140.826
Netflix,Open Connect Appliance,https://openconnect.netflix.com/en_gb/appliances/,Zurich,Switzerland,Active,IPv6,Netflix Streaming Services Inc.,c002,ZRH,1,,IXP,,,,47.464,8.548
Netflix,Open Connect Appliance,https://openconnect.netflix.com/en_gb/appliances/,Brasilia,Brazil,Active,IPv6,CLARO S.A.,c003,BSB,2,Claro br net,ISP,,,,-15.873,-47.925
Netflix,Open Connect Appliance,https://openconnect.netflix.com/en_gb/appliances/,Salvador,Brazil,Active,IPv6,Telemar Norte Leste S.A.,c004,SSA,2,Oi,ISP,,,,-12.912,-38.326
Netflix,Open Connect Appliance,https://openconnect.netflix.com/en_gb/appliances/,Vitoria,Brazil,Active,IPv6,TELEFONICA BRASIL S.A,c005,VIX,1,Telefonica br,ISP,,,,-20.259,-40.288
Netflix,Open Connect Appliance,https://openconnect.netflix.com/en_gb/appliances/,Manchester,United Kingdom,Active,IPv6,TalkTalk Communications Limited,c010,MAN,1,Talktalk,ISP,,,,53.35,-2.279
Netflix,Open Connect Appliance,https://openconnect.netflix.com/en_gb/appliances/,Mexico City,Mexico,Active,IPv6,Uninet S.A. de C.V.,c018,MEX,1,Telmex,ISP,,,,19.433,-99.075
Netflix,Open Connect Appliance,https://openconnect.netflix.com/en_gb/appliances/,Berlin,Germany,Active,IPv6,Netflix Streaming Services Inc.,c020,BER,1,,IXP,,,,52.368,13.504
Netflix,Open Connect Appliance,https://openconnect.netflix.com/en_gb/appliances/,Stockholm,Sweden,Active,IPv6,Netflix Streaming Services Inc.,c065,ARN,1,,IXP,,,,59.649,17.916
Netflix,Open Connect Appliance,https://openconnect.netflix.com/en_gb/appliances/,Fukuoka,Japan,Active,IPv4,QTnet,c001,FUK,1,Qtnet,ISP,,,,33.583,130.448
Netflix,Open Connect Appliance,https://openconnect.netflix.com/en_gb/appliances/,Guadalajara,Mexico,Active,IPv4,Mega Cable,c002,GDL,1,Megacable,ISP,,,,20.52,-103.313
Netflix,Open Connect Appliance,https://openconnect.netflix.com/en_gb/appliances/,London,United Kingdom,Active,IPv4,BTnet UK Regional network,c004,LHR,5,Bt,ISP,,,,51.469,-0.464
Netflix,Open Connect Appliance,https://openconnect.netflix.com/en_gb/appliances/,Los Angeles,United States,Active,IPv6,Netflix Streaming Services Inc.,c258,LAX,1,,IXP,,,,33.944,-118.407
Netflix,Open Connect Appliance,https://openconnect.netflix.com/en_gb/appliances/,Lima,Peru,Active,IPv4,America Movil Peru S.A.C.,c004,LIM,2,Claro pe,ISP,,,,-12.022,-77.115
Netflix,Open Connect Appliance,https://openconnect.netflix.com/en_gb/appliances/,Chennai,India,Active,IPv6,Reliance Jio Infocomm Limited,c004,MAA,1,Jio,ISP,,,,12.99,80.169
Netflix,Open Connect Appliance,https://openconnect.netflix.com/en_gb/appliances/,Los Angeles,United States,Active,IPv6,Netflix Streaming Services Inc.,c258,LAX,1,,IXP,,,,33.946,-118.405
Netflix,Open Connect Appliance,https://openconnect.netflix.com/en_gb/appliances/,Goiania,Brazil,Active,IPv4,AIRLIFE COMUNICACAO VIRTUAL LTDA,c001,GYN,1,Airlife,ISP,,,,-16.634,-49.222
Netflix,Open Connect Appliance,https://openconnect.netflix.com/en_gb/appliances/,Osaka,Japan,Active,IPv4,ITEC HANKYU HANSHIN CO.,c001,ITM,1,Itec,ISP,,,,34.788,135.441
Netflix,Open Connect Appliance,https://openconnect.netflix.com/en_gb/appliances/,Sao Paulo,Brazil,Active,IPv4,Iveloz Telecom,c002,GRU,1,Iveloz,ISP,,,,-23.433,-46.471
Netflix,Open Connect Appliance,https://openconnect.netflix.com/en_gb/appliances/,Winnipeg,Canada,Active,IPv4,Shaw Communications Inc.,c005,YWG,3,Shaw,ISP,,,,49.91,-97.24
Netflix,Open Connect Appliance,https://openconnect.netflix.com/en_gb/appliances/,Sydney,Australia,Active,IPv4,TPG Telecom Limited,c006,SYD,2,Tpg,ISP,,,,-33.948,151.175
Netflix,Open Connect Appliance,https://openconnect.netflix.com/en_gb/appliances/,Atlanta,United States,Active,IPv6,Google Fiber Inc.,c002,ATL,1,Google,ISP,,,,33.633,-84.432
Netflix,Open Connect Appliance,https://openconnect.netflix.com/en_gb/appliances/,Hyderabad,India,Active,IPv6,Gujarat Telelink Pvt Ltd,c002,BPM,1,Gtpl,ISP,,,,17.451,78.465
Netflix,Open Connect Appliance,https://openconnect.netflix.com/en_gb/appliances/,Birmingham,United Kingdom,Active,IPv6,Hutchison 3G UK Limited,c003,BHX,1,Threeuk,ISP,,,,52.452,-1.75
Netflix,Open Connect Appliance,https://openconnect.netflix.com/en_gb/appliances/,Florianopolis,Brazil,Active,IPv6,Brasil Telecom S/A - Filial Distrito Federal,c003,FLN,2,Oi,ISP,,,,-27.672,-48.554
Netflix,Open Connect Appliance,https://openconnect.netflix.com/en_gb/appliances/,Sevilla,Spain,Active,IPv6,TELEFONICA DE ESPANA,c004,SVQ,6,Telefonicaes,ISP,,,,37.421,-5.89
Netflix,Open Connect Appliance,https://openconnect.netflix.com/en_gb/appliances/,Bristol,United Kingdom,Active,IPv6,Sky UK Limited,c008,BRS,1,Sky,ISP,,,,51.379,-2.723
Netflix,Open Connect Appliance,https://openconnect.netflix.com/en_gb/appliances/,Kamloops,Canada,Active,IPv4,TELUS Communications Inc.,c003,YKA,2,Telus,ISP,,,,50.701,-120.446
Netflix,Open Connect Appliance,https://openconnect.netflix.com/en_gb/appliances/,London,United Kingdom,Active,IPv4,Virgin Media,c004,LGW,2,Virginmedia,ISP,,,,51.152,-0.187
Netflix,Open Connect Appliance,https://openconnect.netflix.com/en_gb/appliances/,Salt Lake City,United States,Active,IPv4,Google Fiber Inc.,c004,SLC,1,Google,ISP,,,,40.793,-111.974
Netflix,Open Connect Appliance,https://openconnect.netflix.com/en_gb/appliances/,Bogota,Colombia,Active,IPv4,ETB - Colombia,c007,BOG,1,Etb,ISP,,,,4.7,-74.149
Netflix,Open Connect Appliance,https://openconnect.netflix.com/en_gb/appliances/,Manchester,United Kingdom,Active,IPv4,TalkTalk Communications Limited,c010,MAN,1,Talktalk,ISP,,,,53.352,-2.276
Netflix,Open Connect Appliance,https://openconnect.netflix.com/en_gb/appliances/,Houston,United States,Active,IPv4,Netflix Streaming Services Inc.,c056,IAH,1,,IXP,,,,29.983,-95.343
Netflix,Open Connect Appliance,https://openconnect.netflix.com/en_gb/appliances/,Frankfurt-am-Main,Germany,Active,IPv6,Netflix Streaming Services Inc.,c003,FRA,2,,IXP,,,,50.024,8.541
Netflix,Open Connect Appliance,https://openconnect.netflix.com/en_gb/appliances/,Johannesburg,South Africa,Active,IPv4,Afrihost (Pty) Ltd,c001,JNB,1,Afrihost,ISP,,,,-26.131,28.252
Netflix,Open Connect Appliance,https://openconnect.netflix.com/en_gb/appliances/,Johannesburg,South Africa,Active,IPv4,Cell C (Pty) Ltd,c001,JNB,6,Cellc,ISP,,,,-26.133,28.251
Netflix,Open Connect Appliance,https://openconnect.netflix.com/en_gb/appliances/,Roanoke,United States,Active,IPv4,Citizens Telephone Cooperative,c002,ROA,1,Citizens,ISP,,,,37.324,-79.976
Netflix,Open Connect Appliance,https://openconnect.netflix.com/en_gb/appliances/,Cali,Colombia,Active,IPv4,Telmex Colombia S.A.,c003,CLO,2,Claro co,ISP,,,,3.543,-76.382
Netflix,Open Connect Appliance,https://openconnect.netflix.com/en_gb/appliances/,Buenos Aires,Argentina,Active,IPv4,Telecentro S.A.,c004,AEP,7,Telecentro,ISP,,,,-34.559,-58.415
Netflix,Open Connect Appliance,https://openconnect.netflix.com/en_gb/appliances/,Lima,Peru,Active,IPv4,Telefonica del Peru S.A.A.,c014,LIM,2,Telefonicaperu,ISP,,,,-12.018,-77.11
Netflix,Open Connect Appliance,https://openconnect.netflix.com/en_gb/appliances/,Albuquerque,United States,Active,IPv6,CenturyLink Communications,c001,ABQ,1,Centurylink,ISP,,,,35.039,-106.61
Netflix,Open Connect Appliance,https://openconnect.netflix.com/en_gb/appliances/,Cuiaba,Brazil,Active,IPv6,Brasil Telecom S/A - Filial Distrito Federal,c001,CGB,2,Oi,ISP,,,,-15.656,-56.12
Netflix,Open Connect Appliance,https://openconnect.netflix.com/en_gb/appliances/,Hakodate,Japan,Active,IPv6,Newmedia Corporation,c001,HKD,1,Newmedia,ISP,,,,41.766,140.818
Netflix,Open Connect Appliance,https://openconnect.netflix.com/en_gb/appliances/,Lahore,Pakistan,Active,IPv6,Pakistan Telecommunication Company Limited,c001,LHE,1,Ptcl,ISP,,,,31.522,74.404
Netflix,Open Connect Appliance,https://openconnect.netflix.com/en_gb/appliances/,Zandery,Suriname,Active,IPv6,Telecommunicationcompany Suriname - TeleSur,c002,PBM,1,Telesur,ISP,,,,5.449,-55.192
Netflix,Open Connect Appliance,https://openconnect.netflix.com/en_gb/appliances/,Zurich,Switzerland,Active,IPv6,Netflix Streaming Services Inc.,c002,ZRH,1,,IXP,,,,47.469,8.553
Netflix,Open Connect Appliance,https://openconnect.netflix.com/en_gb/appliances/,Jakarta,Indonesia,Active,IPv6,PT Telekomunikasi Indonesia,c003,CGK,1,Telkom,ISP,,,,-6.129,106.653
Netflix,Open Connect Appliance,https://openconnect.netflix.com/en_gb/appliances/,Sydney,Australia,Active,IPv6,Superloop,c003,SYD,2,Superloop,ISP,,,,-33.947,151.176
Netflix,Open Connect Appliance,https://openconnect.netflix.com/en_gb/appliances/,Salvador,Brazil,Active,IPv6,Telemar Norte Leste S.A.,c004,SSA,2,Oi,ISP,,,,-12.908,-38.322
Netflix,Open Connect Appliance,https://openconnect.netflix.com/en_gb/appliances/,Vitoria,Brazil,Active,IPv6,TELEFONICA BRASIL S.A,c005,VIX,1,Telefonica br,ISP,,,,-20.258,-40.287
Netflix,Open Connect Appliance,https://openconnect.netflix.com/en_gb/appliances/,Manchester,United Kingdom,Active,IPv6,TalkTalk Communications Limited,c010,MAN,1,Talktalk,ISP,,,,53.355,-2.274
Netflix,Open Connect Appliance,https://openconnect.netflix.com/en_gb/appliances/,Mexico City,Mexico,Active,IPv6,Uninet S.A. de C.V.,c018,MEX,1,Telmex,ISP,,,,19.434,-99.075
Netflix,Open Connect Appliance,https://openconnect.netflix.com/en_gb/appliances/,Berlin,Germany,Active,IPv6,Netflix Streaming Services Inc.,c020,BER,1,,IXP,,,,52.371,13.507
Netflix,Open Connect Appliance,https://openconnect.netflix.com/en_gb/appliances/,Pittsburgh,United States,Active,IPv6,Netflix Streaming Services Inc.,c020,PIT,2,,IXP,,,,40.489,-80.235
Netflix,Open Connect Appliance,https://openconnect.netflix.com/en_gb/appliances/,Madrid,Spain,Active,IPv6,Netflix Streaming Services Inc.,c060,MAD,1,,IXP,,,,40.494,-3.566
Netflix,Open Connect Appliance,https://openconnect.netflix.com/en_gb/appliances/,Boston,United States,Active,IPv6,Netflix Streaming Services Inc.,c143,BOS,1,,IXP,,,,42.364,-71.006
Netflix,Open Connect Appliance,https://openconnect.netflix.com/en_gb/appliances/,Fukuoka,Japan,Active,IPv4,QTnet,c001,FUK,1,Qtnet,ISP,,,,33.582,130.447
Netflix,Open Connect Appliance,https://openconnect.netflix.com/en_gb/appliances/,Manila,Philippines,Active,IPv4,SKYBroadband SKYCable Corporation,c001,MNL,2,Skycable,ISP,,,,14.505,121.017
Netflix,Open Connect Appliance,https://openconnect.netflix.com/en_gb/appliances/,Chiang Mai,Thailand,Active,IPv4,Advance Wireless Network,c002,CNX,1,Ais,ISP,,,,18.763,98.959
Netflix,Open Connect Appliance,https://openconnect.netflix.com/en_gb/appliances/,Redmond,United States,Active,IPv4,TDS TELECOM,c006,RDM,1,Tds,ISP,,,,44.257,-121.147
Netflix,Open Connect Appliance,https://openconnect.netflix.com/en_gb/appliances/,Silao,Mexico,Active,IPv4,Uninet S.A. de C.V.,c008,BJX,1,Telmex,ISP,,,,20.995,-101.479
Netflix,Open Connect Appliance,https://openconnect.netflix.com/en_gb/appliances/,Toronto,Canada,Active,IPv4,BACOM,c009,YYZ,4,Bellcanada,ISP,,,,43.681,-79.627
Netflix,Open Connect Appliance,https://openconnect.netflix.com/en_gb/appliances/,Montreal,Canada,Active,IPv4,Videotron Telecom Ltee,c012,YUL,1,Videotron,ISP,,,,45.467,-73.744
Netflix,Open Connect Appliance,https://openconnect.netflix.com/en_gb/appliances/,Oslo,Norway,Active,IPv4,Telenor Norge AS,c017,OSL,2,Telenor,ISP,,,,60.19,11.097
Netflix,Open Connect Appliance,https://openconnect.netflix.com/en_gb/appliances/,Los Angeles,United States,Active,IPv6,Netflix Streaming Services Inc.,c033,LAX,9,,IXP,,,,33.946,-118.405
Netflix,Open Connect Appliance,https://openconnect.netflix.com/en_gb/appliances/,Denver,United States,Active,IPv6,Netflix Streaming Services Inc.,c052,DEN,1,,IXP,,,,39.865,-104.67
Netflix,Open Connect Appliance,https://openconnect.netflix.com/en_gb/appliances/,Chicago,United States,Active,IPv6,Netflix Streaming Services Inc.,c094,ORD,3,,IXP,,,,41.976,-87.907
Netflix,Open Connect Appliance,https://openconnect.netflix.com/en_gb/appliances/,Los Angeles,United States,Active,IPv6,Netflix Streaming Services Inc.,c272,LAX,1,,IXP,,,,33.939,-118.411
Netflix,Open Connect Appliance,https://openconnect.netflix.com/en_gb/appliances/,Chapelco/San Martin de los Andes,Argentina,Active,IPv4,Cotesma,c001,CPC,1,Cotesma,ISP,,,,-40.072,-71.134
Netflix,Open Connect Appliance,https://openconnect.netflix.com/en_gb/appliances/,Sydney,Australia,Active,IPv4,Microplex PTY LTD,c001,SYD,3,Optus,ISP,,,,-33.944,151.18
Netflix,Open Connect Appliance,https://openconnect.netflix.com/en_gb/appliances/,Rouen/Vallee de Seine,France,Active,IPv4,Orange S.A.,c001,URO,4,Orange,ISP,,,,49.388,1.179
Netflix,Open Connect Appliance,https://openconnect.netflix.com/en_gb/appliances/,Beirut,Lebanon,Active,IPv4,Beirut-Lebanon,c002,BEY,1,Idmlb,ISP,,,,33.822,35.49
Netflix,Open Connect Appliance,https://openconnect.netflix.com/en_gb/appliances/,Arnavutkoy,Turkey,Active,IPv4,Turk Telekomunikasyon Anonim Sirketi,c002,IST,2,Turktelekom,ISP,,,,41.258,28.724
Netflix,Open Connect Appliance,https://openconnect.netflix.com/en_gb/appliances/,Ezeiza,Argentina,Active,IPv4,Telecentro S.A.,c003,EZE,9,Telecentro,ISP,,,,-34.821,-58.535
Netflix,Open Connect Appliance,https://openconnect.netflix.com/en_gb/appliances/,Grenoble/Saint-Geoirs,France,Active,IPv4,Bouygues Telecom SA,c005,GNB,1,Bouyguestelecom,ISP,,,,45.359,5.326
Netflix,Open Connect Appliance,https://openconnect.netflix.com/en_gb/appliances/,Zurich,Switzerland,Active,IPv4,Swisscom (Switzerland) Ltd,c007,ZRH,2,Swisscom,ISP,,,,47.468,8.552
Netflix,Open Connect Appliance,https://openconnect.netflix.com/en_gb/appliances/,Tampa,United States,Active,IPv4,Netflix Streaming Services Inc.,c072,TPA,1,,IXP,,,,27.977,-82.532
Netflix,Open Connect Appliance,https://openconnect.netflix.com/en_gb/appliances/,Campina Grande,Brazil,Active,IPv6,OndaNet Ltda,c001,CPV,2,Proxxima,ISP,,,,-7.274,-35.901
Netflix,Open Connect Appliance,https://openconnect.netflix.com/en_gb/appliances/,Madrid,Spain,Active,IPv6,DIGI SPAIN TELECOM S.L.U.,c001,MAD,1,Diginet,ISP,,,,40.492,-3.569
Netflix,Open Connect Appliance,https://openconnect.netflix.com/en_gb/appliances/,Cascavel,Brazil,Active,IPv6,DELTA TELECOMUNICACOES,c002,CAC,1,Deltatele,ISP,,,,-25.0,-53.501
Netflix,Open Connect Appliance,https://openconnect.netflix.com/en_gb/appliances/,Buenos Aires,Argentina,Active,IPv6,Ver Tv S.A.,c004,AEP,1,Telered,ISP,,,,-34.564,-58.42
Netflix,Open Connect Appliance,https://openconnect.netflix.com/en_gb/appliances/,Curitiba,Brazil,Active,IPv6,CLARO S.A.,c006,CWB,1,Claro br net,ISP,,,,-25.53,-49.177
Netflix,Open Connect Appliance,https://openconnect.netflix.com/en_gb/appliances/,Warsaw,Poland,Active,IPv6,Orange Polska Spolka Akcyjna,c012,WAW,1,Orangepl,ISP,,,,52.168,20.969
Netflix,Open Connect Appliance,https://openconnect.netflix.com/en_gb/appliances/,Sydney,Australia,Active,IPv6,Netflix Streaming Services Inc.,c044,SYD,2,,IXP,,,,-33.943,151.18
Netflix,Open Connect Appliance,https://openconnect.netflix.com/en_gb/appliances/,Oslo,Norway,Active,IPv4,,c001,OSL,2,Eidsiva,ISP,,,,60.194,11.101
Netflix,Open Connect Appliance,https://openconnect.netflix.com/en_gb/appliances/,Fortaleza,Brazil,Active,IPv4,Sistema Oeste de Servicos LTDA,c003,FOR,1,Sistema oeste,ISP,,,,-3.78,-38.536
Netflix,Open Connect Appliance,https://openconnect.netflix.com/en_gb/appliances/,Cali,Colombia,Active,IPv4,Telmex Colombia S.A.,c004,CLO,2,Claro co,ISP,,,,3.54,-76.385
Netflix,Open Connect Appliance,https://openconnect.netflix.com/en_gb/appliances/,Fresno,United States,Active,IPv4,Telefonica del Peru S.A.A.,c009,FAT,1,Telefonicaperu,ISP,,,,36.774,-119.72
Netflix,Open Connect Appliance,https://openconnect.netflix.com/en_gb/appliances/,Johannesburg,South Africa,Active,IPv4,Netflix Streaming Services Inc.,c042,JNB,1,,IXP,,,,-26.13,28.254
Netflix,Open Connect Appliance,https://openconnect.netflix.com/en_gb/appliances/,Treviso,Italy,Active,IPv6,Fastweb SpA,c001,TSF,1,Fastweb,ISP,,,,45.649,12.195
Netflix,Open Connect Appliance,https://openconnect.netflix.com/en_gb/appliances/,Bogota,Colombia,Active,IPv6,ETB - Colombia,c006,BOG,2,Etb,ISP,,,,4.702,-74.146
Netflix,Open Connect Appliance,https://openconnect.netflix.com/en_gb/appliances/,Fresno,United States,Active,IPv6,,c010,FAT,2,Telefonicaperu,ISP,,,,36.774,-119.72
Netflix,Open Connect Appliance,https://openconnect.netflix.com/en_gb/appliances/,Chennai,India,Active,IPv6,Netflix Streaming Services Inc.,c010,MAA,1,,IXP,,,,12.994,80.173
Netflix,Open Connect Appliance,https://openconnect.netflix.com/en_gb/appliances/,Veracruz,Mexico,Active,IPv6,,c012,VER,1,Telmex,ISP,,,,19.142,-96.191
Netflix,Open Connect Appliance,https://openconnect.netflix.com/en_gb/appliances/,Newark,United States,Active,IPv6,Netflix Streaming Services Inc.,c144,EWR,2,,IXP,,,,40.694,-74.167
Netflix,Open Connect Appliance,https://openconnect.netflix.com/en_gb/appliances/,Aberdeen,United Kingdom,Active,IPv4,,c005,ABZ,1,Sky,ISP,,,,57.203,-2.196
Netflix,Open Connect Appliance,https://openconnect.netflix.com/en_gb/appliances/,Bauru,Brazil,Active,IPv6,Silva & Silveira Provedor de Internet Ltda,c004,BAU,1,Sigmanet,ISP,,,,-22.346,-49.055
Netflix,Open Connect Appliance,https://openconnect.netflix.com/en_gb/appliances/,Tocumen,Panama,Active,IPv6,,c006,PTY,1,Cable onda,ISP,,,,9.073,-79.382
Netflix,Open Connect Appliance,https://openconnect.netflix.com/en_gb/appliances/,Toronto,Canada,Active,IPv6,,c013,YYZ,1,Cogeco,ISP,,,,43.676,-79.632
Netflix,Open Connect Appliance,https://openconnect.netflix.com/en_gb/appliances/,Abidjan,Cte d'Ivoire,Active,IPv4,,c003,ABJ,2,Orangecontent,ISP,,,,5.263,-3.924
Netflix,Open Connect Appliance,https://openconnect.netflix.com/en_gb/appliances/,Salvador,Brazil,Active,IPv6,,c001,SSA,3,Telefonica br,ISP,,,,-12.907,-38.321
Netflix,Open Connect Appliance,https://openconnect.netflix.com/en_gb/appliances/,Santiago,Chile,Active,IPv4,ANMAX TELECOMUNICACIONES MAXIMILIANO BIONDI EIRL,c001,SCL,1,Anmax cl,ISP,,,,-33.393,-70.786
Netflix,Open Connect Appliance,https://openconnect.netflix.com/en_gb/appliances/,Columbia,United States,Active,IPv4,,c001,CAE,1,Spiritcom,ISP,,,,33.941,-81.118
Netflix,Open Connect Appliance,https://openconnect.netflix.com/en_gb/appliances/,Juiz De Fora,Brazil,Active,IPv4,,c001,JDF,1,Brasilnet,ISP,,,,-21.795,-43.391
Netflix,Open Connect Appliance,https://openconnect.netflix.com/en_gb/appliances/,Vernal,United States,Active,IPv4,,c001,VEL,1,Strata,ISP,,,,40.439,-109.512
Netflix,Open Connect Appliance,https://openconnect.netflix.com/en_gb/appliances/,Bremen,Germany,Active,IPv4,,c002,BRE,1,Ewe tel,ISP,,,,53.051,8.79
Netflix,Open Connect Appliance,https://openconnect.netflix.com/en_gb/appliances/,Dallas-Fort Worth,United States,Active,IPv4,,c006,DFW,3,,IXP,,,,32.895,-97.04
Netflix,Open Connect Appliance,https://openconnect.netflix.com/en_gb/appliances/,Manila,Philippines,Active,IPv4,,c006,MNL,3,Pldt,ISP,,,,14.506,121.018
Netflix,Open Connect Appliance,https://openconnect.netflix.com/en_gb/appliances/,Sioux Falls,United States,Active,IPv4,,c008,FSD,1,Mmi,ISP,,,,43.58,-96.744
Netflix,Open Connect Appliance,https://openconnect.netflix.com/en_gb/appliances/,Philadelphia,United States,Active,IPv4,,c008,PHL,1,Rcn,ISP,,,,39.871,-75.242
Netflix,Open Connect Appliance,https://openconnect.netflix.com/en_gb/appliances/,Bangkok,Thailand,Active,IPv4,,c010,BKK,2,Jastel,ISP,,,,13.68,100.746
Netflix,Open Connect Appliance,https://openconnect.netflix.com/en_gb/appliances/,Guadalajara,Mexico,Active,IPv4,,c011,GDL,1,Totalplay,ISP,,,,20.522,-103.311
Netflix,Open Connect Appliance,https://openconnect.netflix.com/en_gb/appliances/,Newark,United States,Active,IPv4,,c017,EWR,1,Altice east,ISP,,,,40.694,-74.167
Netflix,Open Connect Appliance,https://openconnect.netflix.com/en_gb/appliances/,Sao Paulo,Brazil,Active,IPv4,,c024,GRU,5,,IXP,,,,-23.432,-46.47
Netflix,Open Connect Appliance,https://openconnect.netflix.com/en_gb/appliances/,Denver,United States,Active,IPv4,,c032,DEN,1,,IXP,,,,39.857,-104.677
Netflix,Open Connect Appliance,https://openconnect.netflix.com/en_gb/appliances/,Miami,United States,Active,IPv4,,c052,MIA,3,,IXP,,,,25.793,-80.29
Netflix,Open Connect Appliance,https://openconnect.netflix.com/en_gb/appliances/,Tampa,United States,Active,IPv4,,c055,TPA,1,,IXP,,,,27.972,-82.537
Netflix,Open Connect Appliance,https://openconnect.netflix.com/en_gb/appliances/,Tampa,United States,Active,IPv4,,c059,TPA,1,,IXP,,,,27.973,-82.535
Netflix,Open Connect Appliance,https://openconnect.netflix.com/en_gb/appliances/,Dusseldorf,Germany,Active,IPv4,,c062,DUS,1,,IXP,,,,51.288,6.766
Netflix,Open Connect Appliance,https://openconnect.netflix.com/en_gb/appliances/,Los Angeles,United States,Active,IPv4,,c122,LAX,1,,IXP,,,,33.941,-118.41
Netflix,Open Connect Appliance,https://openconnect.netflix.com/en_gb/appliances/,Miami,United States,Active,IPv4,,c172,MIA,3,,IXP,,,,25.789,-80.294
Netflix,Open Connect Appliance,https://openconnect.netflix.com/en_gb/appliances/,Los Angeles,United States,Active,IPv4,,c178,LAX,1,,IXP,,,,33.938,-118.412
Netflix,Open Connect Appliance,https://openconnect.netflix.com/en_gb/appliances/,Dallas-Fort Worth,United States,Active,IPv4,,c199,DFW,1,,IXP,,,,32.897,-97.038
Netflix,Open Connect Appliance,https://openconnect.netflix.com/en_gb/appliances/,San Jose,United States,Active,IPv4,,c502,SJC,2,,IXP,,,,37.366,-121.926
Netflix,Open Connect Appliance,https://openconnect.netflix.com/en_gb/appliances/,Chicago,United States,Active,IPv4,,c520,ORD,1,,IXP,,,,41.975,-87.908
Netflix,Open Connect Appliance,https://openconnect.netflix.com/en_gb/appliances/,Dallas-Fort Worth,United States,Active,IPv6,,c180,DFW,1,,IXP,,,,32.898,-97.036
Netflix,Open Connect Appliance,https://openconnect.netflix.com/en_gb/appliances/,Dallas-Fort Worth,United States,Active,IPv6,,c231,DFW,1,,IXP,,,,32.9,-97.034
Netflix,Open Connect Appliance,https://openconnect.netflix.com/en_gb/appliances/,Bogota,Colombia,Active,IPv4,,c001,BOG,1,Grenada,ISP,,,,4.698,-74.151
Netflix,Open Connect Appliance,https://openconnect.netflix.com/en_gb/appliances/,Curitiba,Brazil,Active,IPv4,,c001,CWB,1,Copel,ISP,,,,-25.53,-49.177
Netflix,Open Connect Appliance,https://openconnect.netflix.com/en_gb/appliances/,Monterrey,Mexico,Active,IPv4,,c001,MTY,4,Izzi,ISP,,,,25.782,-100.104
Netflix,Open Connect Appliance,https://openconnect.netflix.com/en_gb/appliances/,Sao Luis,Brazil,Active,IPv4,Rede Regional Telecom,c001,SLZ,1,Regionaltelecom,ISP,,,,-2.587,-44.236
Netflix,Open Connect Appliance,https://openconnect.netflix.com/en_gb/appliances/,Saskatoon,Canada,Active,IPv4,,c001,YXE,8,Sasktel,ISP,,,,52.173,-106.697
Netflix,Open Connect Appliance,https://openconnect.netflix.com/en_gb/appliances/,Casablanca,Morocco,Active,IPv4,,c002,CMN,1,Orangema,ISP,,,,33.372,-7.586
Netflix,Open Connect Appliance,https://openconnect.netflix.com/en_gb/appliances/,St Denis,Runion,Active,IPv4,,c002,RUN,1,Srr,ISP,,,,-20.887,55.51
Netflix,Open Connect Appliance,https://openconnect.netflix.com/en_gb/appliances/,St. Petersburg,Russian Federation,Active,IPv6,,c001,LED,1,Retn,ISP,,,,59.805,30.267
Netflix,Open Connect Appliance,https://openconnect.netflix.com/en_gb/appliances/,Amarillo,United States,Active,IPv6,,c005,AMA,1,Suddenlink,ISP,,,,35.22,-101.706
Netflix,Open Connect Appliance,https://openconnect.netflix.com/en_gb/appliances/,London,United Kingdom,Active,IPv6,,c037,LHR,5,,IXP,,,,51.473,-0.46
Netflix,Open Connect Appliance,https://openconnect.netflix.com/en_gb/appliances/,Cardiff,United Kingdom,Active,IPv4,,c001,CWL,1,Sky,ISP,,,,51.396,-3.344
Netflix,Open Connect Appliance,https://openconnect.netflix.com/en_gb/appliances/,Goiania,Brazil,Active,IPv4,Provedor Turbofi,c001,GYN,1,Turbofi,ISP,,,,-16.634,-49.223
Netflix,Open Connect Appliance,https://openconnect.netflix.com/en_gb/appliances/,Auckland,New Zealand,Active,IPv6,Netflix Streaming Services Inc.,c006,AKL,2,,IXP,,,,-37.006,174.794
Netflix,Open Connect Appliance,https://openconnect.netflix.com/en_gb/appliances/,Vancouver,Canada,Active,IPv6,TELUS Communications Inc.,c019,YVR,1,Telus,ISP,,,,49.198,-123.18
Netflix,Open Connect Appliance,https://openconnect.netflix.com/en_gb/appliances/,Chicago,United States,Active,IPv6,,c120,ORD,1,,IXP,,,,41.975,-87.908
Netflix,Open Connect Appliance,https://openconnect.netflix.com/en_gb/appliances/,Napoli,Italy,Active,IPv4,Telecom Italia S.p.A.,c002,NAP,1,Teleit,ISP,,,,40.886,14.291
Netflix,Open Connect Appliance,https://openconnect.netflix.com/en_gb/appliances/,Halifax,Canada,Active,IPv4,EastLink,c003,YHZ,2,Eastlink,ISP,,,,44.884,-63.505
Netflix,Open Connect Appliance,https://openconnect.netflix.com/en_gb/appliances/,Santo Domingo,Dominican Republic,Active,IPv4,Compania Dominicana de Telefonos S. A.,c004,SDQ,1,Claro codetel,ISP,,,,18.43,-69.668
Netflix,Open Connect Appliance,https://openconnect.netflix.com/en_gb/appliances/,Toronto,Canada,Active,IPv4,,c007,YYZ,1,Teksavvy,ISP,,,,43.677,-79.63
Netflix,Open Connect Appliance,https://openconnect.netflix.com/en_gb/appliances/,Mexico City,Mexico,Active,IPv4,CablevisiAn,c013,MEX,1,Izzi,ISP,,,,19.441,-99.068
Netflix,Open Connect Appliance,https://openconnect.netflix.com/en_gb/appliances/,Chicago,United States,Active,IPv4,Netflix Streaming Services Inc.,c015,ORD,1,,IXP,,,,41.982,-87.901
Netflix,Open Connect Appliance,https://openconnect.netflix.com/en_gb/appliances/,Toronto,Canada,Active,IPv4,BACOM,c017,YYZ,1,Bellcanada,ISP,,,,43.677,-79.631
Netflix,Open Connect Appliance,https://openconnect.netflix.com/en_gb/appliances/,London,United Kingdom,Active,IPv4,Netflix Streaming Services Inc.,c061,LHR,4,,IXP,,,,51.467,-0.465
Netflix,Open Connect Appliance,https://openconnect.netflix.com/en_gb/appliances/,Bangkok,Thailand,Active,IPv6,SBN-IIG/AWN-IIG transit provider,c005,BKK,1,Ais,ISP,,,,13.683,100.749
Netflix,Open Connect Appliance,https://openconnect.netflix.com/en_gb/appliances/,Boston,United States,Active,IPv6,Netflix Streaming Services Inc.,c108,BOS,1,,IXP,,,,42.36,-71.009
Netflix,Open Connect Appliance,https://openconnect.netflix.com/en_gb/appliances/,Foggia,Italy,Active,IPv4,Dimensione S.r.l.,c001,FOG,1,Dimensioneit,ISP,,,,41.437,15.539
Netflix,Open Connect Appliance,https://openconnect.netflix.com/en_gb/appliances/,Pasto,Colombia,Active,IPv4,COLOMBIA TELECOMUNICACIONES S.A. ESP,c001,PSO,1,Telefonica co,ISP,,,,1.396,-77.291
Netflix,Open Connect Appliance,https://openconnect.netflix.com/en_gb/appliances/,Bilbao,Spain,Active,IPv4,Orange Espagne SA,c002,BIO,1,Orangees,ISP,,,,43.299,-2.913
Netflix,Open Connect Appliance,https://openconnect.netflix.com/en_gb/appliances/,Iquique,Chile,Active,IPv4,VTR BANDA ANCHA S.A.,c002,IQQ,1,Vtr,ISP,,,,-20.533,-70.179
Netflix,Open Connect Appliance,https://openconnect.netflix.com/en_gb/appliances/,Sydney,Australia,Active,IPv4,Occom Pty Ltd,c002,SYD,1,Occom,ISP,,,,-33.945,151.178
Netflix,Open Connect Appliance,https://openconnect.netflix.com/en_gb/appliances/,Sao Paulo,Brazil,Active,IPv4,N-MULTIMIDIA TELECOMUNICACOES LTDA - ME,c003,CGH,2,Nmultifibra,ISP,,,,-23.623,-46.653
Netflix,Open Connect Appliance,https://openconnect.netflix.com/en_gb/appliances/,San Jose,United States,Active,IPv4,Netflix Streaming Services Inc.,c327,SJC,2,,IXP,,,,37.361,-121.931
Netflix,Open Connect Appliance,https://openconnect.netflix.com/en_gb/appliances/,London,United Kingdom,Active,IPv6,Sky UK Limited,c004,LHR,6,Sky,ISP,,,,51.474,-0.458
Netflix,Open Connect Appliance,https://openconnect.netflix.com/en_gb/appliances/,Ciudad Juarez,Mexico,Active,IPv6,Cablemas Telecomunicaciones SA de CV,c009,CJS,1,Izzi,ISP,,,,31.638,-106.427
Netflix,Open Connect Appliance,https://openconnect.netflix.com/en_gb/appliances/,Bangkok,Thailand,Active,IPv4,TOT Public Company Limited,c002,BKK,1,Tot,ISP,,,,13.683,100.749
Netflix,Open Connect Appliance,https://openconnect.netflix.com/en_gb/appliances/,Silao,Mexico,Active,IPv4,Mega Cable,c004,BJX,1,Megacable,ISP,,,,20.995,-101.48
Netflix,Open Connect Appliance,https://openconnect.netflix.com/en_gb/appliances/,Seattle,United States,Active,IPv4,Netflix Streaming Services Inc.,c021,SEA,3,,IXP,,,,47.447,-122.311
Netflix,Open Connect Appliance,https://openconnect.netflix.com/en_gb/appliances/,Atlanta,United States,Active,IPv4,Netflix Streaming Services Inc.,c034,ATL,4,,IXP,,,,33.636,-84.428
Netflix,Open Connect Appliance,https://openconnect.netflix.com/en_gb/appliances/,Washburn,United States,Active,IPv4,Netflix Streaming Services Inc.,c088,WAS,1,,IXP,,,,47.353,-101.027
Netflix,Open Connect Appliance,https://openconnect.netflix.com/en_gb/appliances/,Amsterdam,Netherlands,Active,IPv4,Netflix Streaming Services Inc.,c143,AMS,1,,IXP,,,,52.31,4.765
Netflix,Open Connect Appliance,https://openconnect.netflix.com/en_gb/appliances/,Los Angeles,United States,Active,IPv4,Netflix Streaming Services Inc.,c267,LAX,1,,IXP,,,,33.944,-118.406
Netflix,Open Connect Appliance,https://openconnect.netflix.com/en_gb/appliances/,New Delhi,India,Active,IPv6,BHARTI Airtel Ltd.,c003,DEL,2,Bhartiairtel,ISP,,,,28.564,77.101
Netflix,Open Connect Appliance,https://openconnect.netflix.com/en_gb/appliances/,Piura,Peru,Active,IPv4,America Movil Peru S.A.C.,c002,PIU,1,Claro pe,ISP,,,,-5.207,-80.618
Netflix,Open Connect Appliance,https://openconnect.netflix.com/en_gb/appliances/,Bern,Switzerland,Active,IPv4,Swisscom (Switzerland) Ltd,c003,BRN,5,Swisscom,ISP,,,,46.917,7.5
Netflix,Open Connect Appliance,https://openconnect.netflix.com/en_gb/appliances/,Recife,Brazil,Active,IPv4,FLASH NET TELECOMUNICACOES LTDA - ME,c004,REC,1,Flashnet,ISP,,,,-8.124,-34.921
Netflix,Open Connect Appliance,https://openconnect.netflix.com/en_gb/appliances/,Nassau,Bahamas,Active,IPv4,Cable Bahamas,c005,NAS,1,Cablebahamas,ISP,,,,25.043,-77.462
Netflix,Open Connect Appliance,https://openconnect.netflix.com/en_gb/appliances/,Ezeiza,Argentina,Active,IPv4,,c007,EZE,6,Telecom argentina,ISP,,,,-34.822,-58.536
Netflix,Open Connect Appliance,https://openconnect.netflix.com/en_gb/appliances/,Philadelphia,United States,Active,IPv4,Netflix Streaming Services Inc.,c081,PHL,1,,IXP,,,,39.872,-75.241
Netflix,Open Connect Appliance,https://openconnect.netflix.com/en_gb/appliances/,San Jose,United States,Active,IPv4,Netflix Streaming Services Inc.,c326,SJC,2,,IXP,,,,37.359,-121.932
Netflix,Open Connect Appliance,https://openconnect.netflix.com/en_gb/appliances/,Barcelona,Spain,Active,IPv6,,c004,BCN,1,Orangees,ISP,,,,41.298,2.08
Netflix,Open Connect Appliance,https://openconnect.netflix.com/en_gb/appliances/,Lima,Peru,Active,IPv6,,c018,LIM,1,Telefonicaperu,ISP,,,,-12.022,-77.114
Netflix,Open Connect Appliance,https://openconnect.netflix.com/en_gb/appliances/,San Diego,United States,Active,IPv6,Netflix Streaming Services Inc.,c034,SAN,1,,IXP,,,,32.732,-117.191
Netflix,Open Connect Appliance,https://openconnect.netflix.com/en_gb/appliances/,Hong Kong,Hong Kong,Active,IPv6,Netflix Streaming Services Inc.,c053,HKG,1,,IXP,,,,22.305,113.911
Netflix,Open Connect Appliance,https://openconnect.netflix.com/en_gb/appliances/,Buenos Aires,Argentina,Active,IPv4,TELXIUS,c013,AEP,1,Telxius,ISP,,,,-34.561,-58.417
Netflix,Open Connect Appliance,https://openconnect.netflix.com/en_gb/appliances/,Washburn,United States,Active,IPv4,Netflix Streaming Services Inc.,c039,WAS,1,,IXP,,,,47.349,-101.031
Netflix,Open Connect Appliance,https://openconnect.netflix.com/en_gb/appliances/,Dallas-Fort Worth,United States,Active,IPv4,Netflix Streaming Services Inc.,c308,DFW,1,,IXP,,,,32.894,-97.041
Netflix,Open Connect Appliance,https://openconnect.netflix.com/en_gb/appliances/,Seattle,United States,Active,IPv6,Netflix Streaming Services Inc.,c204,SEA,1,,IXP,,,,47.453,-122.305
Netflix,Open Connect Appliance,https://openconnect.netflix.com/en_gb/appliances/,Adelaide,Australia,Active,IPv4,Microplex PTY LTD,c001,ADL,1,Optus,ISP,,,,-34.946,138.53
Netflix,Open Connect Appliance,https://openconnect.netflix.com/en_gb/appliances/,Ilheus,Brazil,Active,IPv4,MEYER TELECOM,c001,IOS,1,Meyertelecom,ISP,,,,-14.816,-39.033
Netflix,Open Connect Appliance,https://openconnect.netflix.com/en_gb/appliances/,Kuwait City,Kuwait,Active,IPv4,Gulfnet Kuwait,c001,KWI,3,Bonlinekw,ISP,,,,29.228,47.97
Netflix,Open Connect Appliance,https://openconnect.netflix.com/en_gb/appliances/,Lages,Brazil,Active,IPv4,ATPlus Telecom,c001,LAJ,1,Atplus,ISP,,,,-27.782,-50.281
Netflix,Open Connect Appliance,https://openconnect.netflix.com/en_gb/appliances/,Santiago,Dominican Republic,Active,IPv4,Telecable Central,c001,STI,1,Telecable central,ISP,,,,19.402,-70.609
Netflix,Open Connect Appliance,https://openconnect.netflix.com/en_gb/appliances/,Vodochoky,Czechia,Active,IPv4,The Czech Republic,c001,VOD,1,Cdtelematika,ISP,,,,50.221,14.4
Netflix,Open Connect Appliance,https://openconnect.netflix.com/en_gb/appliances/,Aracatuba,Brazil,Active,IPv4,L. Garcia Comunicacoes ME,c003,ARU,1,Linkbrasil,ISP,,,,-21.14,-50.423
Netflix,Open Connect Appliance,https://openconnect.netflix.com/en_gb/appliances/,Birmingham,United States,Active,IPv4,Sky UK Limited,c003,BHM,2,Sky,ISP,,,,33.561,-86.755
Netflix,Open Connect Appliance,https://openconnect.netflix.com/en_gb/appliances/,Belo Horizonte,Brazil,Active,IPv4,CLARO S.A.,c003,PLU,1,Claro br net,ISP,,,,-19.852,-43.951
Netflix,Open Connect Appliance,https://openconnect.netflix.com/en_gb/appliances/,Ribeirao Preto,Brazil,Active,IPv4,Minas Gerais Telecomunicacoes Ltda ME,c003,RAO,1,Univox,ISP,,,,-21.134,-47.774
Netflix,Open Connect Appliance,https://openconnect.netflix.com/en_gb/appliances/,Hebron,United States,Active,IPv4,,c006,CVG,2,Cinbell,ISP,,,,39.048,-84.668
Netflix,Open Connect Appliance,https://openconnect.netflix.com/en_gb/appliances/,Fortaleza,Brazil,Active,IPv6,,c001,FOR,1,Linkce,ISP,,,,-3.777,-38.533
Netflix,Open Connect Appliance,https://openconnect.netflix.com/en_gb/appliances/,Wilkes-Barre/Scranton,United States,Active,IPv6,PenTeleData Inc.,c002,AVP,1,Penteledata,ISP,,,,41.342,-75.72
Netflix,Open Connect Appliance,https://openconnect.netflix.com/en_gb/appliances/,Manchester,United Kingdom,Active,IPv6,Sky UK Limited,c002,MAN,3,Sky,ISP,,,,53.35,-2.279
Netflix,Open Connect Appliance,https://openconnect.netflix.com/en_gb/appliances/,Vitoria,Brazil,Active,IPv6,TELEFONICA BRASIL S.A,c002,VIX,1,Telefonica br,ISP,,,,-20.259,-40.288
Netflix,Open Connect Appliance,https://openconnect.netflix.com/en_gb/appliances/,Bucharest,Romania,Active,IPv6,73-75 Dr. Staicovici,c009,BBU,2,Diginet,ISP,,,,44.506,26.105
Netflix,Open Connect Appliance,https://openconnect.netflix.com/en_gb/appliances/,Vienna,Austria,Active,IPv6,Netflix Streaming Services Inc.,c028,VIE,1,,IXP,,,,48.111,16.57
Netflix,Open Connect Appliance,https://openconnect.netflix.com/en_gb/appliances/,Miami,United States,Active,IPv6,Netflix Streaming Services Inc.,c048,MIA,5,,IXP,,,,25.796,-80.288
Netflix,Open Connect Appliance,https://openconnect.netflix.com/en_gb/appliances/,Athens,Greece,Active,IPv4,Athens,c002,ATH,1,Vodafonegreece,ISP,,,,37.937,23.945
Netflix,Open Connect Appliance,https://openconnect.netflix.com/en_gb/appliances/,Edmonton,Canada,Active,IPv4,Shaw Communications Inc.,c006,YEG,2,Shaw,ISP,,,,53.312,-113.578
Netflix,Open Connect Appliance,https://openconnect.netflix.com/en_gb/appliances/,Warsaw,Poland,Active,IPv4,,c010,WAW,1,,IXP,,,,52.164,20.965
Netflix,Open Connect Appliance,https://openconnect.netflix.com/en_gb/appliances/,Chicago,United States,Active,IPv4,Netflix Streaming Services Inc.,c018,ORD,1,,IXP,,,,41.976,-87.908
Netflix,Open Connect Appliance,https://openconnect.netflix.com/en_gb/appliances/,Johannesburg,South Africa,Active,IPv4,Netflix Streaming Services Inc.,c022,JNB,1,,IXP,,,,-26.136,28.247
Netflix,Open Connect Appliance,https://openconnect.netflix.com/en_gb/appliances/,Dallas-Fort Worth,United States,Active,IPv4,Netflix Streaming Services Inc.,c314,DFW,1,,IXP,,,,32.901,-97.034
Netflix,Open Connect Appliance,https://openconnect.netflix.com/en_gb/appliances/,Chicago,United States,Active,IPv4,Netflix Streaming Services Inc.,c502,ORD,1,,IXP,,,,41.979,-87.905
Netflix,Open Connect Appliance,https://openconnect.netflix.com/en_gb/appliances/,Singapore,Singapore,Active,IPv6,Netflix Streaming Services Inc.,c043,SIN,1,,IXP,,,,1.352,103.995
Netflix,Open Connect Appliance,https://openconnect.netflix.com/en_gb/appliances/,Washburn,United States,Active,IPv6,Netflix Streaming Services Inc.,c123,WAS,1,,IXP,,,,47.352,-101.028
Netflix,Open Connect Appliance,https://openconnect.netflix.com/en_gb/appliances/,Dallas-Fort Worth,United States,Active,IPv6,Netflix Streaming Services Inc.,c285,DFW,1,,IXP,,,,32.895,-97.04
Netflix,Open Connect Appliance,https://openconnect.netflix.com/en_gb/appliances/,Barcelona,Spain,Active,IPv4,TELEFONICA DE ESPANA,c001,BCN,8,Telefonicaes,ISP,,,,41.299,2.081
Netflix,Open Connect Appliance,https://openconnect.netflix.com/en_gb/appliances/,Reykjavik,Iceland,Active,IPv4,Hringdu ehf,c002,RKV,1,Hringdu,ISP,,,,64.128,-21.942
Netflix,Open Connect Appliance,https://openconnect.netflix.com/en_gb/appliances/,Grand Forks,United States,Active,IPv4,MIDCO-NET,c003,GFK,1,Mmi,ISP,,,,47.948,-97.178
Netflix,Open Connect Appliance,https://openconnect.netflix.com/en_gb/appliances/,Stavanger,Norway,Active,IPv4,Norway,c007,SVG,3,Altibox,ISP,,,,58.874,5.635
Netflix,Open Connect Appliance,https://openconnect.netflix.com/en_gb/appliances/,San Diego,United States,Active,IPv4,Netflix Streaming Services Inc.,c036,SAN,1,,IXP,,,,32.736,-117.188
Netflix,Open Connect Appliance,https://openconnect.netflix.com/en_gb/appliances/,Belo Horizonte,Brazil,Active,IPv6,CLARO S.A.,c001,CNF,2,Claro br net,ISP,,,,-19.626,-43.973
Netflix,Open Connect Appliance,https://openconnect.netflix.com/en_gb/appliances/,Caxias Do Sul,Brazil,Active,IPv6,CONECTION SERVICOS DE VALOR ADICIONADO LTDA,c001,CXJ,1,Fbnet,ISP,,,,-29.197,-51.187
Netflix,Open Connect Appliance,https://openconnect.netflix.com/en_gb/appliances/,Nice,France,Active,IPv6,Orange S.A.,c001,NCE,2,Orange,ISP,,,,43.655,7.213
Netflix,Open Connect Appliance,https://openconnect.netflix.com/en_gb/appliances/,San Miguel de Tucuman,Argentina,Active,IPv6,Techtel LMDS Comunicaciones Interactivas S.A.,c001,TUC,1,Claro ar,ISP,,,,-26.842,-65.106
Netflix,Open Connect Appliance,https://openconnect.netflix.com/en_gb/appliances/,Karachi,Pakistan,Active,IPv6,Cyber Internet Services (Pvt) Ltd.,c002,KHI,2,Cyberinternet,ISP,,,,24.909,67.164
Netflix,Open Connect Appliance,https://openconnect.netflix.com/en_gb/appliances/,London,United Kingdom,Active,IPv6,TalkTalk Communications Limited,c002,LCY,5,Talktalk,ISP,,,,51.509,0.059
Netflix,Open Connect Appliance,https://openconnect.netflix.com/en_gb/appliances/,Sao Paulo,Brazil,Active,IPv6,TIM S/A,c005,CGH,2,Tim,ISP,,,,-23.63,-46.66
Netflix,Open Connect Appliance,https://openconnect.netflix.com/en_gb/appliances/,London,United Kingdom,Active,IPv6,BTnet UK Regional network,c014,LGW,1,Bt,ISP,,,,51.153,-0.186
Netflix,Open Connect Appliance,https://openconnect.netflix.com/en_gb/appliances/,Houston,United States,Active,IPv6,Netflix Streaming Services Inc.,c109,IAH,1,,IXP,,,,29.987,-95.338
Netflix,Open Connect Appliance,https://openconnect.netflix.com/en_gb/appliances/,Boston,United States,Active,IPv6,Netflix Streaming Services Inc.,c122,BOS,1,,IXP,,,,42.362,-71.008
Netflix,Open Connect Appliance,https://openconnect.netflix.com/en_gb/appliances/,Augusta,United States,Active,IPv4,First Light Fiber,c001,AUG,1,Firstlight,ISP,,,,44.318,-69.799
Netflix,Open Connect Appliance,https://openconnect.netflix.com/en_gb/appliances/,Athens,Greece,Active,IPv4,6-8 Agisilaou Str.,c002,ATH,3,Oteglobe,ISP,,,,37.935,23.943
Netflix,Open Connect Appliance,https://openconnect.netflix.com/en_gb/appliances/,Goiania,Brazil,Active,IPv4,G8 NETWORKS LTDA,c002,GYN,1,G8networks,ISP,,,,-16.629,-49.218
Netflix,Open Connect Appliance,https://openconnect.netflix.com/en_gb/appliances/,Manchester,United Kingdom,Active,IPv4,TalkTalk Communications Limited,c002,MAN,6,Talktalk,ISP,,,,53.351,-2.278
Netflix,Open Connect Appliance,https://openconnect.netflix.com/en_gb/appliances/,Toronto,Canada,Active,IPv4,BACOM,c030,YYZ,2,Bellcanada,ISP,,,,43.674,-79.634
Netflix,Open Connect Appliance,https://openconnect.netflix.com/en_gb/appliances/,Dusseldorf,Germany,Active,IPv6,Netflix Streaming Services Inc.,c044,DUS,2,,IXP,,,,51.288,6.766
Netflix,Open Connect Appliance,https://openconnect.netflix.com/en_gb/appliances/,Chicago,United States,Active,IPv6,Netflix Streaming Services Inc.,c087,ORD,3,,IXP,,,,41.976,-87.907
Netflix,Open Connect Appliance,https://openconnect.netflix.com/en_gb/appliances/,Belo Horizonte,Brazil,Active,IPv4,Companhia Itabirana Telecomunicacoes Ltda,c001,CNF,2,Valenet,ISP,,,,-19.623,-43.97
Netflix,Open Connect Appliance,https://openconnect.netflix.com/en_gb/appliances/,Manaus,Brazil,Active,IPv4,Telemar Norte Leste S.A.,c001,MAO,2,Oi,ISP,,,,-3.042,-60.053
Netflix,Open Connect Appliance,https://openconnect.netflix.com/en_gb/appliances/,Tel Aviv,Israel,Active,IPv4,AMS-IX Admin LAN,c001,SDV,1,Hot,ISP,,,,32.116,34.783
Netflix,Open Connect Appliance,https://openconnect.netflix.com/en_gb/appliances/,Recife,Brazil,Active,IPv4,Telemar Norte Leste S.A.,c002,REC,2,Oi,ISP,,,,-8.126,-34.923
Netflix,Open Connect Appliance,https://openconnect.netflix.com/en_gb/appliances/,Campinas,Brazil,Active,IPv4,TELEFONICA BRASIL S.A,c002,VCP,4,Telefonica br,ISP,,,,-23.006,-47.133
Netflix,Open Connect Appliance,https://openconnect.netflix.com/en_gb/appliances/,Villahermosa,Mexico,Active,IPv4,Mexico Red de Telecomunicaciones,c002,VSA,1,Izzi,ISP,,,,18.0,-92.815
Netflix,Open Connect Appliance,https://openconnect.netflix.com/en_gb/appliances/,Nicosia,Cyprus,Active,IPv4,Internet Services,c003,ECN,2,Cytacy,ISP,,,,35.152,33.493
Netflix,Open Connect Appliance,https://openconnect.netflix.com/en_gb/appliances/,Buenos Aires,Argentina,Active,IPv4,Telefonica de Argentina,c004,AEP,1,Telefonica ar,ISP,,,,-34.561,-58.417
Netflix,Open Connect Appliance,https://openconnect.netflix.com/en_gb/appliances/,Rio De Janeiro,Brazil,Active,IPv4,TIM S/A,c004,SDU,1,Tim,ISP,,,,-22.915,-43.167
Netflix,Open Connect Appliance,https://openconnect.netflix.com/en_gb/appliances/,Stockholm,Sweden,Active,IPv4,Bredband2 AB,c005,ARN,1,Bredband2,ISP,,,,59.648,17.915
Netflix,Open Connect Appliance,https://openconnect.netflix.com/en_gb/appliances/,Chicago,United States,Active,IPv4,Netflix Streaming Services Inc.,c551,ORD,1,,IXP,,,,41.976,-87.907
Netflix,Open Connect Appliance,https://openconnect.netflix.com/en_gb/appliances/,Comodoro Rivadavia,Argentina,Active,IPv6,Telefonica de Argentina,c001,CRD,1,Telefonica ar,ISP,,,,-45.788,-67.468
Netflix,Open Connect Appliance,https://openconnect.netflix.com/en_gb/appliances/,Fortaleza,Brazil,Active,IPv6,CLARO S.A.,c001,FOR,1,Claro br,ISP,,,,-3.777,-38.533
Netflix,Open Connect Appliance,https://openconnect.netflix.com/en_gb/appliances/,Albany,United States,Active,IPv6,First Light Fiber,c003,ALB,1,Firstlight,ISP,,,,42.751,-73.799
Netflix,Open Connect Appliance,https://openconnect.netflix.com/en_gb/appliances/,Barcelona,Spain,Active,IPv6,TELEFONICA DE ESPANA,c006,BCN,8,Telefonicaes,ISP,,,,41.295,2.077
Netflix,Open Connect Appliance,https://openconnect.netflix.com/en_gb/appliances/,Barranquilla,Colombia,Active,IPv6,TELXIUS,c007,BAQ,1,Telxius,ISP,,,,10.892,-74.778
Netflix,Open Connect Appliance,https://openconnect.netflix.com/en_gb/appliances/,Calgary,Canada,Active,IPv6,TELUS Communications Inc.,c013,YYC,1,Telus,ISP,,,,51.11,-114.024
Netflix,Open Connect Appliance,https://openconnect.netflix.com/en_gb/appliances/,Miami,United States,Active,IPv6,Netflix Streaming Services Inc.,c014,MIA,5,,IXP,,,,25.792,-80.292
Netflix,Open Connect Appliance,https://openconnect.netflix.com/en_gb/appliances/,Toronto,Canada,Active,IPv6,Rogers Communications Canada Inc.,c015,YYZ,2,Rogers,ISP,,,,43.679,-79.628
Netflix,Open Connect Appliance,https://openconnect.netflix.com/en_gb/appliances/,Manchester,United Kingdom,Active,IPv6,BTnet UK Regional network,c028,MAN,2,Bt,ISP,,,,53.353,-2.276
Netflix,Open Connect Appliance,https://openconnect.netflix.com/en_gb/appliances/,Chicago,United States,Active,IPv6,Netflix Streaming Services Inc.,c073,ORD,1,,IXP,,,,41.98,-87.903
Netflix,Open Connect Appliance,https://openconnect.netflix.com/en_gb/appliances/,Dusseldorf,Germany,Active,IPv6,Netflix Streaming Services Inc.,c087,DUS,2,,IXP,,,,51.289,6.766
Netflix,Open Connect Appliance,https://openconnect.netflix.com/en_gb/appliances/,Madrid,Spain,Active,IPv6,Netflix Streaming Services Inc.,c112,MAD,1,,IXP,,,,40.498,-3.563
Netflix,Open Connect Appliance,https://openconnect.netflix.com/en_gb/appliances/,Valencia,Spain,Active,IPv4,ES,c006,VLC,1,Vodafonees,ISP,,,,39.489,-0.482
Netflix,Open Connect Appliance,https://openconnect.netflix.com/en_gb/appliances/,Mexico City,Mexico,Active,IPv4,CablevisiAn,c026,MEX,2,Izzi,ISP,,,,19.438,-99.07
Netflix,Open Connect Appliance,https://openconnect.netflix.com/en_gb/appliances/,Salvador,Brazil,Active,IPv6,VIVA TECNOLOGIA TELECOM,c001,SSA,1,Vivatecnologia,ISP,,,,-12.913,-38.327
Netflix,Open Connect Appliance,https://openconnect.netflix.com/en_gb/appliances/,Brisbane,Australia,Active,IPv6,Aussie Broadband,c003,BNE,1,Aussiebb,ISP,,,,-27.382,153.119
Netflix,Open Connect Appliance,https://openconnect.netflix.com/en_gb/appliances/,Sydney,Australia,Active,IPv6,Vocus Retail,c004,SYD,2,M2,ISP,,,,-33.95,151.173
Netflix,Open Connect Appliance,https://openconnect.netflix.com/en_gb/appliances/,London,United Kingdom,Active,IPv4,,c001,LHR,2,Bt,ISP,,,,51.473,-0.46
Netflix,Open Connect Appliance,https://openconnect.netflix.com/en_gb/appliances/,Columbia,United States,Active,IPv4,,c002,CAE,1,Spiritcom,ISP,,,,33.941,-81.117
Netflix,Open Connect Appliance,https://openconnect.netflix.com/en_gb/appliances/,Dubai,United Arab Emirates,Active,IPv4,,c002,NHD,1,Du,ISP,,,,25.031,55.37
Netflix,Open Connect Appliance,https://openconnect.netflix.com/en_gb/appliances/,Salt Lake City,United States,Active,IPv4,,c002,SLC,1,Viasat,ISP,,,,40.79,-111.976
Netflix,Open Connect Appliance,https://openconnect.netflix.com/en_gb/appliances/,Yateley,United Kingdom,Active,IPv4,,c003,BBS,1,Sky,ISP,,,,51.324,-0.847
Netflix,Open Connect Appliance,https://openconnect.netflix.com/en_gb/appliances/,Greenville,United States,Active,IPv4,,c003,PGV,1,Suddenlink,ISP,,,,35.638,-77.382
Netflix,Open Connect Appliance,https://openconnect.netflix.com/en_gb/appliances/,Calgary,Canada,Active,IPv4,,c003,YYC,2,Shaw,ISP,,,,51.113,-114.021
Netflix,Open Connect Appliance,https://openconnect.netflix.com/en_gb/appliances/,Phoenix,United States,Active,IPv4,,c007,PHX,1,Centurylink,ISP,,,,33.434,-112.013
Netflix,Open Connect Appliance,https://openconnect.netflix.com/en_gb/appliances/,Glasgow,United Kingdom,Active,IPv4,,c008,GLA,1,Sky,ISP,,,,55.874,-4.43
Netflix,Open Connect Appliance,https://openconnect.netflix.com/en_gb/appliances/,Los Angeles,United States,Active,IPv4,,c008,LAX,4,,IXP,,,,33.94,-118.411
Netflix,Open Connect Appliance,https://openconnect.netflix.com/en_gb/appliances/,Miami,United States,Active,IPv4,,c008,MIA,3,,IXP,,,,25.791,-80.293
Netflix,Open Connect Appliance,https://openconnect.netflix.com/en_gb/appliances/,Fortaleza,Brazil,Active,IPv4,,c012,FOR,1,,IXP,,,,-3.774,-38.53
Netflix,Open Connect Appliance,https://openconnect.netflix.com/en_gb/appliances/,Sao Paulo,Brazil,Active,IPv4,,c013,GRU,5,,IXP,,,,-23.436,-46.474
Netflix,Open Connect Appliance,https://openconnect.netflix.com/en_gb/appliances/,Frankfurt-am-Main,Germany,Active,IPv4,,c033,FRA,1,,IXP,,,,50.023,8.539
Netflix,Open Connect Appliance,https://openconnect.netflix.com/en_gb/appliances/,Tampa,United States,Active,IPv4,,c036,TPA,1,,IXP,,,,27.978,-82.53
Netflix,Open Connect Appliance,https://openconnect.netflix.com/en_gb/appliances/,London,United Kingdom,Active,IPv4,,c038,LHR,5,,IXP,,,,51.468,-0.464
Netflix,Open Connect Appliance,https://openconnect.netflix.com/en_gb/appliances/,Tampa,United States,Active,IPv4,,c060,TPA,1,,IXP,,,,27.979,-82.529
Netflix,Open Connect Appliance,https://openconnect.netflix.com/en_gb/appliances/,San Jose,United States,Active,IPv4,,c062,SJC,5,,IXP,,,,37.364,-121.928
Netflix,Open Connect Appliance,https://openconnect.netflix.com/en_gb/appliances/,Dallas-Fort Worth,United States,Active,IPv4,,c209,DFW,1,,IXP,,,,32.896,-97.039
Netflix,Open Connect Appliance,https://openconnect.netflix.com/en_gb/appliances/,Chicago,United States,Active,IPv4,,c339,ORD,1,,IXP,,,,41.979,-87.905
Netflix,Open Connect Appliance,https://openconnect.netflix.com/en_gb/appliances/,Chicago,United States,Active,IPv4,,c346,ORD,1,,IXP,,,,41.976,-87.907
Netflix,Open Connect Appliance,https://openconnect.netflix.com/en_gb/appliances/,Chicago,United States,Active,IPv4,,c410,ORD,1,,IXP,,,,41.974,-87.909
Netflix,Open Connect Appliance,https://openconnect.netflix.com/en_gb/appliances/,San Jose,United States,Active,IPv4,,c629,SJC,2,,IXP,,,,37.366,-121.926
Netflix,Open Connect Appliance,https://openconnect.netflix.com/en_gb/appliances/,Miami,United States,Active,IPv6,,c154,MIA,3,,IXP,,,,25.791,-80.293
Netflix,Open Connect Appliance,https://openconnect.netflix.com/en_gb/appliances/,Dallas-Fort Worth,United States,Active,IPv6,,c192,DFW,1,,IXP,,,,32.897,-97.038
Netflix,Open Connect Appliance,https://openconnect.netflix.com/en_gb/appliances/,Chicago,United States,Active,IPv6,,c468,ORD,1,,IXP,,,,41.976,-87.907
Netflix,Open Connect Appliance,https://openconnect.netflix.com/en_gb/appliances/,Belo Horizonte,Brazil,Active,IPv4,,c001,PLU,1,Ledinternet,ISP,,,,-19.854,-43.953
Netflix,Open Connect Appliance,https://openconnect.netflix.com/en_gb/appliances/,Aracaju,Brazil,Active,IPv4,,c003,AJU,1,Sergipeweb,ISP,,,,-10.986,-37.073
Netflix,Open Connect Appliance,https://openconnect.netflix.com/en_gb/appliances/,Lille/Lesquin,France,Active,IPv4,,c004,LIL,1,Bouyguestelecom,ISP,,,,50.559,3.086
Netflix,Open Connect Appliance,https://openconnect.netflix.com/en_gb/appliances/,Arequipa,Peru,Active,IPv4,,c006,AQP,1,Claro pe,ISP,,,,-16.344,-71.586
Netflix,Open Connect Appliance,https://openconnect.netflix.com/en_gb/appliances/,Ezeiza,Argentina,Active,IPv4,,c015,EZE,5,Prima,ISP,,,,-34.824,-58.537
Netflix,Open Connect Appliance,https://openconnect.netflix.com/en_gb/appliances/,Copenhagen,Denmark,Active,IPv6,,c001,CPH,2,Hi3g,ISP,,,,55.617,12.655
Netflix,Open Connect Appliance,https://openconnect.netflix.com/en_gb/appliances/,Ezeiza,Argentina,Active,IPv6,,c001,EZE,5,Telecom argentina,ISP,,,,-34.827,-58.54
Netflix,Open Connect Appliance,https://openconnect.netflix.com/en_gb/appliances/,Hamburg,Germany,Active,IPv6,,c001,HAM,2,Wilhelmtel,ISP,,,,53.635,9.993
Netflix,Open Connect Appliance,https://openconnect.netflix.com/en_gb/appliances/,Ezeiza,Argentina,Active,IPv6,,c004,EZE,3,Telecom argentina,ISP,,,,-34.826,-58.539
Netflix,Open Connect Appliance,https://openconnect.netflix.com/en_gb/appliances/,Sioux Falls,United States,Active,IPv6,,c017,FSD,2,Mmi,ISP,,,,43.582,-96.742
Netflix,Open Connect Appliance,https://openconnect.netflix.com/en_gb/appliances/,Dallas-Fort Worth,United States,Active,IPv6,,c037,DFW,3,,IXP,,,,32.899,-97.036
Netflix,Open Connect Appliance,https://openconnect.netflix.com/en_gb/appliances/,Belo Horizonte,Brazil,Active,IPv4,REDE MINEIRA DE TELECOMUNICACOES LTDA,c003,PLU,1,Redemineira,ISP,,,,-19.852,-43.952
Netflix,Open Connect Appliance,https://openconnect.netflix.com/en_gb/appliances/,Bage,Brazil,Active,IPv6,TCHENET TELECOM,c001,BGX,2,Osirnet,ISP,,,,-31.389,-54.11
Netflix,Open Connect Appliance,https://openconnect.netflix.com/en_gb/appliances/,St Cloud,United States,Active,IPv6,CenturyLink Communications,c001,STC,1,Centurylink,ISP,,,,45.551,-94.056
Netflix,Open Connect Appliance,https://openconnect.netflix.com/en_gb/appliances/,Atlanta,United States,Active,IPv4,Ellijay Telephone Company,c002,ATL,1,Etc,ISP,,,,33.641,-84.424
Netflix,Open Connect Appliance,https://openconnect.netflix.com/en_gb/appliances/,Barcelona,Spain,Active,IPv4,,c004,BCN,2,Jazznet,ISP,,,,41.294,2.076
Netflix,Open Connect Appliance,https://openconnect.netflix.com/en_gb/appliances/,Berlin,Germany,Active,IPv4,Netflix Streaming Services Inc.,c024,BER,1,,IXP,,,,52.368,13.504
Netflix,Open Connect Appliance,https://openconnect.netflix.com/en_gb/appliances/,Chicago,United States,Active,IPv4,Netflix Streaming Services Inc.,c064,ORD,3,,IXP,,,,41.982,-87.901
Netflix,Open Connect Appliance,https://openconnect.netflix.com/en_gb/appliances/,Arecibo,Puerto Rico,Active,IPv4,DM Wireless,c001,ARE,1,Dmwireless,ISP,,,,18.449,-66.676
Netflix,Open Connect Appliance,https://openconnect.netflix.com/en_gb/appliances/,Belo Horizonte,Brazil,Active,IPv4,KATER TELECOMUNICACOES,c001,PLU,1,Kater,ISP,,,,-19.851,-43.951
Netflix,Open Connect Appliance,https://openconnect.netflix.com/en_gb/appliances/,Knoxville,United States,Active,IPv4,North Georgia Network Cooperative,c001,TYS,1,Ngngeorgia,ISP,,,,35.81,-83.995
Netflix,Open Connect Appliance,https://openconnect.netflix.com/en_gb/appliances/,Sydney,Australia,Active,IPv4,Telstra Corporation,c003,SYD,3,Belong,ISP,,,,-33.944,151.179
